id,name,country_code,country_name,admin1_code,admin1_name,timezone,timezone_offset,latitude,longitude
1,les Escaldes,AD,Andorra,08,Escaldes-Engordany,Europe/Andorra,+2,42.50729,1.53414
2,Andorra la Vella,AD,Andorra,07,Andorra la Vella,Europe/Andorra,+2,42.50779,1.52109
3,Warīsān,AE,United Arab Emirates,03,Dubai,Asia/Dubai,+4,25.16744,55.40708
4,Umm Suqaym,AE,United Arab Emirates,03,Dubai,Asia/Dubai,+4,25.15491,55.21015
5,Umm Al Quwain City,AE,United Arab Emirates,07,Imārat Umm al Qaywayn,Asia/Dubai,+4,25.56473,55.55517
6,Ţarīf Kalbā,AE,United Arab Emirates,04,Fujairah,Asia/Dubai,+4,25.06950,56.33115
7,Ar Rāshidīyah,AE,United Arab Emirates,03,Dubai,Asia/Dubai,+4,25.22499,55.38947
8,Ras Al Khaimah City,AE,United Arab Emirates,05,Raʼs al Khaymah,Asia/Dubai,+4,25.78953,55.94320
9,Zayed City,AE,United Arab Emirates,01,Abu Dhabi,Asia/Dubai,+4,23.65416,53.70522
10,Khawr Fakkān,AE,United Arab Emirates,06,Sharjah,Asia/Dubai,+4,25.33132,56.34199
11,Kalbā,AE,United Arab Emirates,06,Sharjah,Asia/Dubai,+4,25.05130,56.35422
12,Jumayrā,AE,United Arab Emirates,03,Dubai,Asia/Dubai,+4,25.20795,55.24969
13,Dubai,AE,United Arab Emirates,03,Dubai,Asia/Dubai,+4,25.07725,55.30927
14,Dibba Al-Fujairah,AE,United Arab Emirates,04,Fujairah,Asia/Dubai,+4,25.59246,56.26176
15,Dibba Al-Hisn,AE,United Arab Emirates,04,Fujairah,Asia/Dubai,+4,25.61955,56.27291
16,Dayrah,AE,United Arab Emirates,03,Dubai,Asia/Dubai,+4,25.27143,55.30207
17,Sharjah,AE,United Arab Emirates,06,Sharjah,Asia/Dubai,+4,25.33737,55.41206
18,Ar Ruways,AE,United Arab Emirates,01,Abu Dhabi,Asia/Dubai,+4,24.11028,52.73056
19,Ḩattā,AE,United Arab Emirates,03,Dubai,Asia/Dubai,+4,24.80073,56.12726
20,Al Fujairah City,AE,United Arab Emirates,04,Fujairah,Asia/Dubai,+4,25.11641,56.34141
21,Al Ain City,AE,United Arab Emirates,01,Abu Dhabi,Asia/Dubai,+4,24.19167,55.76056
22,Ajman City,AE,United Arab Emirates,02,Ajman,Asia/Dubai,+4,25.40177,55.47878
23,Adh Dhayd,AE,United Arab Emirates,06,Sharjah,Asia/Dubai,+4,25.28812,55.88157
24,Abu Dhabi,AE,United Arab Emirates,01,Abu Dhabi,Asia/Dubai,+4,24.45118,54.39696
25,Abū Hayl,AE,United Arab Emirates,03,Dubai,Asia/Dubai,+4,25.28413,55.33153
26,As Saţwah,AE,United Arab Emirates,03,Dubai,Asia/Dubai,+4,25.22192,55.27459
27,Al Ḩamīdīyah,AE,United Arab Emirates,02,Ajman,Asia/Dubai,+4,25.40001,55.52925
28,Al Waheda,AE,United Arab Emirates,03,Dubai,Asia/Dubai,+4,25.29173,55.33822
29,Al Karama,AE,United Arab Emirates,03,Dubai,Asia/Dubai,+4,25.24004,55.30106
30,The Palm Jumeirah,AE,United Arab Emirates,03,Dubai,Asia/Dubai,+4,25.11607,55.13506
31,Bur Dubai,AE,United Arab Emirates,03,Dubai,Asia/Dubai,+4,25.26038,55.29891
32,Khalifah A City,AE,United Arab Emirates,01,Abu Dhabi,Asia/Dubai,+4,24.42588,54.60500
33,Mirdif,AE,United Arab Emirates,03,Dubai,Asia/Dubai,+4,25.22443,55.41412
34,Hawr al ‘Anz,AE,United Arab Emirates,03,Dubai,Asia/Dubai,+4,25.27744,55.33675
35,Mankhūl,AE,United Arab Emirates,03,Dubai,Asia/Dubai,+4,25.24612,55.29222
36,Nāyf,AE,United Arab Emirates,03,Dubai,Asia/Dubai,+4,25.27139,55.30323
37,Al Murar al Qadīm,AE,United Arab Emirates,03,Dubai,Asia/Dubai,+4,25.27576,55.30738
38,Al Warqaa,AE,United Arab Emirates,03,Dubai,Asia/Dubai,+4,25.19272,55.42013
39,International City,AE,United Arab Emirates,03,Dubai,Asia/Dubai,+4,25.16383,55.40987
40,Dubai Marina,AE,United Arab Emirates,03,Dubai,Asia/Dubai,+4,25.08525,55.14646
41,Dubai Internet City,AE,United Arab Emirates,03,Dubai,Asia/Dubai,+4,25.09538,55.16171
42,Al Safa,AE,United Arab Emirates,03,Dubai,Asia/Dubai,+4,25.17047,55.23336
43,Ar Rumaylah,AE,United Arab Emirates,02,Ajman,Asia/Dubai,+4,25.40338,55.43340
44,Al Jurf,AE,United Arab Emirates,02,Ajman,Asia/Dubai,+4,25.41814,55.50791
45,Al Majaz,AE,United Arab Emirates,06,Sharjah,Asia/Dubai,+4,25.32354,55.38774
46,Dubai Festival City,AE,United Arab Emirates,03,Dubai,Asia/Dubai,+4,25.22177,55.35733
47,Dubai International Financial Centre,AE,United Arab Emirates,03,Dubai,Asia/Dubai,+4,25.21060,55.27787
48,Dubai Investments Park,AE,United Arab Emirates,03,Dubai,Asia/Dubai,+4,25.00827,55.15682
49,Jebel Ali,AE,United Arab Emirates,03,Dubai,Asia/Dubai,+4,25.00255,55.10811
50,Bani Yas City,AE,United Arab Emirates,01,Abu Dhabi,Asia/Dubai,+4,24.30978,54.62944
51,Musaffah,AE,United Arab Emirates,01,Abu Dhabi,Asia/Dubai,+4,24.35893,54.48267
52,Al Shamkhah City,AE,United Arab Emirates,01,Abu Dhabi,Asia/Dubai,+4,24.39268,54.70779
53,Reef Al Fujairah City,AE,United Arab Emirates,04,Fujairah,Asia/Dubai,+4,25.14479,56.24764
54,Al Bada'a,AE,United Arab Emirates,03,Dubai,Asia/Dubai,+4,25.22462,55.26888
55,Al Muteena,AE,United Arab Emirates,03,Dubai,Asia/Dubai,+4,25.27375,55.32265
56,Al Mizhar First,AE,United Arab Emirates,03,Dubai,Asia/Dubai,+4,25.24805,55.44128
57,Dubai Silicon Oasis,AE,United Arab Emirates,03,Dubai,Asia/Dubai,+4,25.11985,55.38718
58,Al Furjan,AE,United Arab Emirates,03,Dubai,Asia/Dubai,+4,25.02651,55.14565
59,Business Bay,AE,United Arab Emirates,03,Dubai,Asia/Dubai,+4,25.18544,55.26969
60,Al Qusais 1,AE,United Arab Emirates,03,Dubai,Asia/Dubai,+4,25.27925,55.36995
61,Halwan,AE,United Arab Emirates,06,Sharjah,Asia/Dubai,+4,25.34586,55.42165
62,Al Sajaah,AE,United Arab Emirates,06,Sharjah,Asia/Dubai,+4,25.31532,55.63211
63,Lahbab,AE,United Arab Emirates,03,Dubai,Asia/Dubai,+4,25.03763,55.59135
64,Mohammed Bin Zayed City,AE,United Arab Emirates,01,Abu Dhabi,Asia/Dubai,+4,24.34794,54.55368
65,Zaranj,AF,Afghanistan,19,Nimroz,Asia/Kabul,+4,30.95962,61.86037
66,Bāzār-e Yakāwlang,AF,Afghanistan,05,Bamyan,Asia/Kabul,+4,34.73525,66.97379
67,Taloqan,AF,Afghanistan,26,Takhar,Asia/Kabul,+4,36.73605,69.53451
68,Shīnḏanḏ,AF,Afghanistan,11,Herat,Asia/Kabul,+4,33.30294,62.14740
69,Shibirghān,AF,Afghanistan,31,Jowzjan,Asia/Kabul,+4,36.66757,65.75290
70,Shahrak,AF,Afghanistan,09,Ghowr,Asia/Kabul,+4,34.10737,64.30520
71,Sar-e Pul,AF,Afghanistan,33,Sar-e Pol Province,Asia/Kabul,+4,36.21544,65.93249
150,Gavar,AM,Armenia,04,Gegharkunik,Asia/Yerevan,+4,40.35398,45.12386
72,Sang-e Chārak,AF,Afghanistan,33,Sar-e Pol Province,Asia/Kabul,+4,35.84972,66.43694
73,Aībak,AF,Afghanistan,32,Samangan,Asia/Kabul,+4,36.26468,68.01551
74,Rustāq,AF,Afghanistan,26,Takhar,Asia/Kabul,+4,37.12604,69.83045
75,Qarqīn,AF,Afghanistan,31,Jowzjan,Asia/Kabul,+4,37.41853,66.04358
76,Qarāwul,AF,Afghanistan,24,Kunduz,Asia/Kabul,+4,37.21959,68.78020
77,Pul-e Khumrī,AF,Afghanistan,03,Baghlan,Asia/Kabul,+4,35.94458,68.71512
78,Paghmān,AF,Afghanistan,13,Kabul,Asia/Kabul,+4,34.58787,68.95091
79,Nīlī,AF,Afghanistan,41,Daykundi,Asia/Kabul,+4,33.72178,66.13023
80,Nahrīn,AF,Afghanistan,03,Baghlan,Asia/Kabul,+4,36.06490,69.13343
81,Maymana,AF,Afghanistan,07,Faryab,Asia/Kabul,+4,35.92139,64.78361
82,Mehtar Lām,AF,Afghanistan,35,Laghman,Asia/Kabul,+4,34.67139,70.20944
83,Mazār-e Sharīf,AF,Afghanistan,30,Balkh,Asia/Kabul,+4,36.70904,67.11087
84,Lashkar Gāh,AF,Afghanistan,10,Helmand,Asia/Kabul,+4,31.59382,64.37161
85,Kushk,AF,Afghanistan,11,Herat,Asia/Kabul,+4,33.29565,61.95221
86,Kunduz,AF,Afghanistan,24,Kunduz,Asia/Kabul,+4,36.72895,68.85700
87,Khōst,AF,Afghanistan,37,Khowst,Asia/Kabul,+4,33.33951,69.92041
88,Khulm,AF,Afghanistan,30,Balkh,Asia/Kabul,+4,36.69736,67.69826
89,Khāsh,AF,Afghanistan,19,Nimroz,Asia/Kabul,+4,31.52919,62.79055
90,Khān Neshīn,AF,Afghanistan,10,Helmand,Asia/Kabul,+4,30.54880,63.78880
91,Khanabad,AF,Afghanistan,24,Kunduz,Asia/Kabul,+4,36.68304,69.11279
92,Karukh,AF,Afghanistan,11,Herat,Asia/Kabul,+4,34.48108,62.58630
93,Kandahār,AF,Afghanistan,23,Kandahar,Asia/Kabul,+4,31.61332,65.71013
94,Kabul,AF,Afghanistan,13,Kabul,Asia/Kabul,+4,34.52813,69.17233
95,Jalālābād,AF,Afghanistan,18,Nangarhar,Asia/Kabul,+4,34.42647,70.45153
96,Jabal os Saraj,AF,Afghanistan,40,Parwan,Asia/Kabul,+4,35.11833,69.23778
97,Herāt,AF,Afghanistan,11,Herat,Asia/Kabul,+4,34.34817,62.19967
98,Ghormach,AF,Afghanistan,02,Badghis,Asia/Kabul,+4,35.73062,63.78264
99,Ghazni,AF,Afghanistan,08,Ghazni,Asia/Kabul,+4,33.55391,68.42096
100,Gereshk,AF,Afghanistan,10,Helmand,Asia/Kabul,+4,31.82089,64.57005
101,Gardez,AF,Afghanistan,36,Paktia,Asia/Kabul,+4,33.59744,69.22592
102,Fayzabad,AF,Afghanistan,01,Badakhshan,Asia/Kabul,+4,37.11664,70.58002
103,Farah,AF,Afghanistan,06,Farah,Asia/Kabul,+4,32.37451,62.11638
104,Eslam Qaleh,AF,Afghanistan,11,Herat,Asia/Kabul,+4,34.66667,61.06667
105,Charikar,AF,Afghanistan,40,Parwan,Asia/Kabul,+4,35.01361,69.17139
106,Baraki Barak,AF,Afghanistan,17,Logar,Asia/Kabul,+4,33.96744,68.94920
107,Bāmyān,AF,Afghanistan,05,Bamyan,Asia/Kabul,+4,34.82156,67.82734
108,Balkh,AF,Afghanistan,30,Balkh,Asia/Kabul,+4,36.75635,66.89720
109,Baghlān,AF,Afghanistan,03,Baghlan,Asia/Kabul,+4,36.13068,68.70829
110,Ārt Khwājah,AF,Afghanistan,26,Takhar,Asia/Kabul,+4,37.08571,69.47958
111,Āsmār,AF,Afghanistan,34,Kunar,Asia/Kabul,+4,35.03333,71.35809
112,Asadābād,AF,Afghanistan,34,Kunar,Asia/Kabul,+4,34.87311,71.14697
113,Andkhōy,AF,Afghanistan,07,Faryab,Asia/Kabul,+4,36.95293,65.12376
114,Bāzārak,AF,Afghanistan,42,Panjshir,Asia/Kabul,+4,35.31292,69.51519
115,Markaz-e Woluswalī-ye Āchīn,AF,Afghanistan,18,Nangarhar,Asia/Kabul,+4,34.12583,70.70778
116,Saint John’s,AG,Antigua and Barbuda,04,Saint John Parish,America/Antigua,-4,17.12096,-61.84329
117,The Valley,AI,Anguilla,11205396,The Valley,America/Anguilla,-4,18.21704,-63.05783
118,Sarandë,AL,Albania,51,Vlorë County,Europe/Tirane,+2,39.87534,20.00477
119,Pogradec,AL,Albania,46,Korçë County,Europe/Tirane,+2,40.90250,20.65250
120,Librazhd,AL,Albania,43,Elbasan County,Europe/Tirane,+2,41.17944,20.31500
121,Kukës,AL,Albania,47,Kukës County,Europe/Tirane,+2,42.07694,20.42194
122,Korçë,AL,Albania,46,Korçë County,Europe/Tirane,+2,40.61861,20.78083
123,Gjirokastër,AL,Albania,45,Gjirokastër County,Europe/Tirane,+2,40.07583,20.13889
124,Elbasan,AL,Albania,43,Elbasan County,Europe/Tirane,+2,41.11250,20.08222
125,Bulqizë,AL,Albania,41,Dibër County,Europe/Tirane,+2,41.49167,20.22194
126,Vlorë,AL,Albania,51,Vlorë County,Europe/Tirane,+2,40.46860,19.48318
127,Tirana,AL,Albania,50,Tirana,Europe/Tirane,+2,41.32744,19.81866
128,Shkodër,AL,Albania,49,Shkodër County,Europe/Tirane,+2,42.06828,19.51258
129,Peqin,AL,Albania,43,Elbasan County,Europe/Tirane,+2,41.04611,19.75111
130,Patos Fshat,AL,Albania,44,Fier County,Europe/Tirane,+2,40.64278,19.65083
131,Patos,AL,Albania,44,Fier County,Europe/Tirane,+2,40.68333,19.61944
132,Lushnjë,AL,Albania,44,Fier County,Europe/Tirane,+2,40.94194,19.70500
133,Lezhë,AL,Albania,48,Lezhë County,Europe/Tirane,+2,41.78361,19.64361
134,Kuçovë,AL,Albania,40,Berat County,Europe/Tirane,+2,40.80028,19.91667
135,Krujë,AL,Albania,42,Durrës County,Europe/Tirane,+2,41.50917,19.79278
136,Kavajë,AL,Albania,50,Tirana,Europe/Tirane,+2,41.18556,19.55694
137,Fier-Çifçi,AL,Albania,44,Fier County,Europe/Tirane,+2,40.71667,19.56667
138,Fier,AL,Albania,44,Fier County,Europe/Tirane,+2,40.72389,19.55611
139,Durrës,AL,Albania,42,Durrës County,Europe/Tirane,+2,41.32355,19.45469
140,Berat,AL,Albania,40,Berat County,Europe/Tirane,+2,40.70583,19.95222
141,Kapan,AM,Armenia,08,Syunik,Asia/Yerevan,+4,39.20762,46.40678
142,Goris,AM,Armenia,08,Syunik,Asia/Yerevan,+4,39.51111,46.34168
143,Artashat,AM,Armenia,02,Ararat,Asia/Yerevan,+4,39.95484,44.54874
144,Ararat,AM,Armenia,02,Ararat,Asia/Yerevan,+4,39.85494,44.69470
145,Yerevan,AM,Armenia,11,Yerevan,Asia/Yerevan,+4,40.17765,44.51260
146,Vagharshapat,AM,Armenia,03,Armavir,Asia/Yerevan,+4,40.16557,44.29462
147,Sevan,AM,Armenia,04,Gegharkunik,Asia/Yerevan,+4,40.54800,44.95314
148,Masis,AM,Armenia,02,Ararat,Asia/Yerevan,+4,40.06595,44.43669
149,Vanadzor,AM,Armenia,06,Lori,Asia/Yerevan,+4,40.80740,44.49704
151,Ijevan,AM,Armenia,09,Tavush,Asia/Yerevan,+4,40.88037,45.14776
152,Hrazdan,AM,Armenia,05,Kotayk,Asia/Yerevan,+4,40.51690,44.75591
153,Armavir,AM,Armenia,03,Armavir,Asia/Yerevan,+4,40.15553,44.03880
154,Gyumri,AM,Armenia,07,Shirak,Asia/Yerevan,+4,40.79305,43.84635
155,Dilijan,AM,Armenia,09,Tavush,Asia/Yerevan,+4,40.74037,44.86344
156,Davtashen,AM,Armenia,11,Yerevan,Asia/Yerevan,+4,40.21642,44.48088
157,Charentsavan,AM,Armenia,05,Kotayk,Asia/Yerevan,+4,40.40289,44.64447
158,Avan,AM,Armenia,11,Yerevan,Asia/Yerevan,+4,40.21436,44.57846
159,Ashtarak,AM,Armenia,01,Aragatsotn,Asia/Yerevan,+4,40.29760,44.36152
160,Artik,AM,Armenia,07,Shirak,Asia/Yerevan,+4,40.61918,43.97207
161,Abovyan,AM,Armenia,05,Kotayk,Asia/Yerevan,+4,40.27170,44.63342
162,Erebuni,AM,Armenia,11,Yerevan,Asia/Yerevan,+4,40.13309,44.53009
163,Nor Nork,AM,Armenia,11,Yerevan,Asia/Yerevan,+4,40.19661,44.56690
164,Ajapnyak,AM,Armenia,11,Yerevan,Asia/Yerevan,+4,40.19917,44.47056
165,Kanaker-Zeytun,AM,Armenia,11,Yerevan,Asia/Yerevan,+4,40.22000,44.53833
166,Malatia-Sebastia,AM,Armenia,11,Yerevan,Asia/Yerevan,+4,40.17396,44.44570
167,Kentron,AM,Armenia,11,Yerevan,Asia/Yerevan,+4,40.17806,44.51303
168,Shengavit,AM,Armenia,11,Yerevan,Asia/Yerevan,+4,40.15570,44.47790
169,Arabkir,AM,Armenia,11,Yerevan,Asia/Yerevan,+4,40.20624,44.50365
170,Saurimo,AO,Angola,18,Lunda Sul,Africa/Luanda,+1,-9.66078,20.39155
171,Lucapa,AO,Angola,17,Luanda Norte,Africa/Luanda,+1,-8.41915,20.74466
172,Dundo,AO,Angola,17,Luanda Norte,Africa/Luanda,+1,-7.36643,20.81557
173,Chitato,AO,Angola,17,Luanda Norte,Africa/Luanda,+1,-7.30000,20.73333
174,Cassanguidi,AO,Angola,17,Luanda Norte,Africa/Luanda,+1,-7.48367,21.30339
175,Lumbala,AO,Angola,14,Moxico,Africa/Luanda,+1,-14.10165,21.43531
176,Luau,AO,Angola,14,Moxico,Africa/Luanda,+1,-10.70727,22.22466
177,Cazombo,AO,Angola,14,Moxico,Africa/Luanda,+1,-11.89355,22.90240
178,Nzagi,AO,Angola,05,Cuanza Norte,Africa/Luanda,+1,-8.38549,15.30126
179,Uíge,AO,Angola,15,Uíge,Africa/Luanda,+1,-7.60874,15.06131
180,Tombôco,AO,Angola,16,Zaire,Africa/Luanda,+1,-6.80517,13.33017
181,Soyo,AO,Angola,16,Zaire,Africa/Luanda,+1,-6.13490,12.36894
182,Songo,AO,Angola,15,Uíge,Africa/Luanda,+1,-7.35207,14.84629
183,Sanza Pombo,AO,Angola,15,Uíge,Africa/Luanda,+1,-7.31473,16.00240
184,Ambrizette,AO,Angola,16,Zaire,Africa/Luanda,+1,-7.23116,12.86660
185,Negage,AO,Angola,15,Uíge,Africa/Luanda,+1,-7.75938,15.27220
186,N'dalatando,AO,Angola,05,Cuanza Norte,Africa/Luanda,+1,-9.29782,14.91162
187,Mussende,AO,Angola,06,Kwanza Sul,Africa/Luanda,+1,-10.51430,16.01990
188,Mbanza Kongo,AO,Angola,16,Zaire,Africa/Luanda,+1,-6.26667,14.23833
189,Maquela do Zombo,AO,Angola,15,Uíge,Africa/Luanda,+1,-6.05716,15.10971
190,Malanje,AO,Angola,12,Malanje,Africa/Luanda,+1,-9.54015,16.34096
191,Lucala,AO,Angola,05,Cuanza Norte,Africa/Luanda,+1,-9.27268,15.25206
192,Lubalo,AO,Angola,17,Luanda Norte,Africa/Luanda,+1,-9.15445,19.28136
193,Luanda,AO,Angola,20,Luanda,Africa/Luanda,+1,-8.83682,13.23432
194,Cunda diá Baze,AO,Angola,12,Malanje,Africa/Luanda,+1,-8.90769,17.05339
195,Golungo Alto,AO,Angola,05,Cuanza Norte,Africa/Luanda,+1,-9.13333,14.76667
196,Dondo,AO,Angola,05,Cuanza Norte,Africa/Luanda,+1,-9.68456,14.42788
197,Dondo,AO,Angola,05,Cuanza Norte,Africa/Luanda,+1,-9.05000,15.31667
198,Cuímba,AO,Angola,16,Zaire,Africa/Luanda,+1,-6.12085,14.62086
199,Cuilo,AO,Angola,17,Luanda Norte,Africa/Luanda,+1,-8.23619,19.52566
200,Cuango-Luzamba,AO,Angola,17,Luanda Norte,Africa/Luanda,+1,-9.14583,18.04453
201,Cazombo,AO,Angola,05,Cuanza Norte,Africa/Luanda,+1,-8.73204,15.37124
202,Caxito,AO,Angola,19,Bengo,Africa/Luanda,+1,-8.57848,13.66425
203,Cangandala,AO,Angola,12,Malanje,Africa/Luanda,+1,-9.78333,16.43333
204,Camabatela,AO,Angola,05,Cuanza Norte,Africa/Luanda,+1,-8.18812,15.37495
205,Cacuso,AO,Angola,12,Malanje,Africa/Luanda,+1,-9.42102,15.74668
206,Cabinda,AO,Angola,03,Cabinda,Africa/Luanda,+1,-5.56198,12.19476
207,Buco Zau,AO,Angola,03,Cabinda,Africa/Luanda,+1,-4.76667,12.55000
208,Belize,AO,Angola,03,Cabinda,Africa/Luanda,+1,-4.65000,12.76667
209,Barra do Dande,AO,Angola,19,Bengo,Africa/Luanda,+1,-8.47175,13.37011
210,Bailundo,AO,Angola,12,Malanje,Africa/Luanda,+1,-9.57499,15.99442
211,Gama,AO,Angola,19,Bengo,Africa/Luanda,+1,-8.56750,13.47639
212,Xangongo,AO,Angola,07,Cunene,Africa/Luanda,+1,-16.74440,14.97494
213,Alto Hama,AO,Angola,08,Huambo,Africa/Luanda,+1,-12.23333,15.55000
214,Virei,AO,Angola,13,Namibe,Africa/Luanda,+1,-15.72700,12.94961
215,Ucuma,AO,Angola,08,Huambo,Africa/Luanda,+1,-12.96121,15.05958
216,Ucu Seles,AO,Angola,06,Kwanza Sul,Africa/Luanda,+1,-11.41237,14.30663
217,Tômbua,AO,Angola,13,Namibe,Africa/Luanda,+1,-15.80394,11.84485
218,Sumbe,AO,Angola,06,Kwanza Sul,Africa/Luanda,+1,-11.20605,13.84371
219,Quipungo,AO,Angola,09,Huíla,Africa/Luanda,+1,-14.81909,14.53504
220,Quibala,AO,Angola,06,Kwanza Sul,Africa/Luanda,+1,-10.73366,14.97995
221,Porto Amboim,AO,Angola,06,Kwanza Sul,Africa/Luanda,+1,-10.73251,13.76844
222,Ondjiva,AO,Angola,07,Cunene,Africa/Luanda,+1,-17.06667,15.73333
223,Nharêa,AO,Angola,02,Bíe,Africa/Luanda,+1,-11.47512,16.96496
224,Mossamedes,AO,Angola,13,Namibe,Africa/Luanda,+1,-15.19611,12.15222
225,Mungo,AO,Angola,08,Huambo,Africa/Luanda,+1,-11.83268,16.23613
226,Menongue,AO,Angola,04,Cuando Cobango,Africa/Luanda,+1,-14.65850,17.69099
227,Matala,AO,Angola,09,Huíla,Africa/Luanda,+1,-14.73272,15.03479
228,Luquembo,AO,Angola,12,Malanje,Africa/Luanda,+1,-10.73912,17.71766
229,Luena,AO,Angola,14,Moxico,Africa/Luanda,+1,-11.78333,19.91667
230,Lubango,AO,Angola,09,Huíla,Africa/Luanda,+1,-14.91717,13.49250
231,Longonjo,AO,Angola,08,Huambo,Africa/Luanda,+1,-12.90795,15.24845
232,Londuimbali,AO,Angola,08,Huambo,Africa/Luanda,+1,-12.23712,15.31697
233,Lobito,AO,Angola,01,Benguela,Africa/Luanda,+1,-12.36440,13.53601
234,Cuíto,AO,Angola,02,Bíe,Africa/Luanda,+1,-12.38333,16.93333
235,Catchiungo,AO,Angola,08,Huambo,Africa/Luanda,+1,-12.56598,16.22589
236,Huambo,AO,Angola,08,Huambo,Africa/Luanda,+1,-12.77611,15.73917
237,Ganda,AO,Angola,01,Benguela,Africa/Luanda,+1,-13.01592,14.63502
238,Gabela,AO,Angola,06,Kwanza Sul,Africa/Luanda,+1,-10.85147,14.37993
239,Dombe Grande,AO,Angola,01,Benguela,Africa/Luanda,+1,-12.95167,13.10250
240,Cuemba,AO,Angola,02,Bíe,Africa/Luanda,+1,-12.15000,18.08333
241,Cubal,AO,Angola,01,Benguela,Africa/Luanda,+1,-13.03865,14.24550
242,Conda,AO,Angola,06,Kwanza Sul,Africa/Luanda,+1,-11.10862,14.33621
243,Chitembo,AO,Angola,02,Bíe,Africa/Luanda,+1,-13.55000,16.63333
244,Chinguar,AO,Angola,02,Bíe,Africa/Luanda,+1,-12.55708,16.33805
245,Cela,AO,Angola,06,Kwanza Sul,Africa/Luanda,+1,-11.42173,15.12345
246,Catumbela,AO,Angola,01,Benguela,Africa/Luanda,+1,-12.43002,13.54677
247,Catabola,AO,Angola,02,Bíe,Africa/Luanda,+1,-12.15000,17.28333
248,Capunda,AO,Angola,06,Kwanza Sul,Africa/Luanda,+1,-11.13333,14.46667
249,Camucuio,AO,Angola,13,Namibe,Africa/Luanda,+1,-14.11667,13.25000
250,Cambundi Catembo,AO,Angola,12,Malanje,Africa/Luanda,+1,-10.07531,17.55058
251,Camacupa,AO,Angola,02,Bíe,Africa/Luanda,+1,-12.01667,17.48333
252,Caluquembe,AO,Angola,09,Huíla,Africa/Luanda,+1,-13.86667,14.43333
253,Calulo,AO,Angola,06,Kwanza Sul,Africa/Luanda,+1,-10.00055,14.89519
254,Caála,AO,Angola,08,Huambo,Africa/Luanda,+1,-12.85250,15.56056
255,Bocoio,AO,Angola,01,Benguela,Africa/Luanda,+1,-12.47017,14.13688
256,Benguela,AO,Angola,01,Benguela,Africa/Luanda,+1,-12.57674,13.40268
257,Balombo,AO,Angola,01,Benguela,Africa/Luanda,+1,-12.35426,14.77232
258,Baía Farta,AO,Angola,01,Benguela,Africa/Luanda,+1,-12.60417,13.19667
259,Andulo,AO,Angola,02,Bíe,Africa/Luanda,+1,-11.48676,16.69663
260,Cambundi,AO,Angola,12,Malanje,Africa/Luanda,+1,-7.46856,17.03769
261,Cafunfo,AO,Angola,17,Luanda Norte,Africa/Luanda,+1,-8.76720,17.99572
262,Santa Clara,AO,Angola,06,Kwanza Sul,Africa/Luanda,+1,-10.19156,15.43408
263,Quissecula,AO,Angola,06,Kwanza Sul,Africa/Luanda,+1,-11.39223,15.09201
264,Cambundi,AO,Angola,12,Malanje,Africa/Luanda,+1,-10.89481,17.76402
265,Zárate,AR,Argentina,01,Buenos Aires,America/Argentina/Buenos_Aires,-3,-34.09584,-59.02423
266,Colonia Wanda,AR,Argentina,14,Misiones,America/Argentina/Cordoba,-3,-25.97337,-54.56304
267,Villa Ortúzar,AR,Argentina,07,Buenos Aires F.D.,America/Argentina/Buenos_Aires,-3,-34.57973,-58.46829
268,Villa Ocampo,AR,Argentina,21,Santa Fe,America/Argentina/Cordoba,-3,-28.48689,-59.35423
269,Villa Lugano,AR,Argentina,07,Buenos Aires F.D.,America/Argentina/Buenos_Aires,-3,-34.67907,-58.47263
270,Villaguay,AR,Argentina,08,Entre Rios,America/Argentina/Cordoba,-3,-31.86767,-59.02701
271,Villa Gesell,AR,Argentina,01,Buenos Aires,America/Argentina/Buenos_Aires,-3,-37.26394,-56.97304
272,Villa de Mayo,AR,Argentina,01,Buenos Aires,America/Argentina/Buenos_Aires,-3,-34.51080,-58.68059
273,Tortuguitas,AR,Argentina,01,Buenos Aires,America/Argentina/Buenos_Aires,-3,-34.47513,-58.75367
274,Tigre,AR,Argentina,01,Buenos Aires,America/Argentina/Buenos_Aires,-3,-34.42603,-58.57962
275,Tandil,AR,Argentina,01,Buenos Aires,America/Argentina/Buenos_Aires,-3,-37.32870,-59.13690
276,San Vicente,AR,Argentina,14,Misiones,America/Argentina/Cordoba,-3,-26.61667,-54.13333
277,Santo Tomé,AR,Argentina,06,Corrientes,America/Argentina/Cordoba,-3,-28.55104,-56.04125
278,Santos Lugares,AR,Argentina,01,Buenos Aires,America/Argentina/Buenos_Aires,-3,-34.60306,-58.54074
279,Santa Elena,AR,Argentina,08,Entre Rios,America/Argentina/Cordoba,-3,-30.94432,-59.78832
280,San Pedro,AR,Argentina,01,Buenos Aires,America/Argentina/Buenos_Aires,-3,-33.67918,-59.66633
281,San Pedro,AR,Argentina,14,Misiones,America/Argentina/Cordoba,-3,-26.62180,-54.10902
282,San Luis del Palmar,AR,Argentina,06,Corrientes,America/Argentina/Cordoba,-3,-27.50766,-58.55625
283,San Lorenzo,AR,Argentina,06,Corrientes,America/Argentina/Cordoba,-3,-28.13442,-58.76685
284,San Javier,AR,Argentina,21,Santa Fe,America/Argentina/Cordoba,-3,-30.57781,-59.93170
285,San Isidro,AR,Argentina,01,Buenos Aires,America/Argentina/Buenos_Aires,-3,-34.46971,-58.52111
286,San Antonio de Padua,AR,Argentina,01,Buenos Aires,America/Argentina/Buenos_Aires,-3,-34.66267,-58.69819
287,Saladas,AR,Argentina,06,Corrientes,America/Argentina/Cordoba,-3,-28.25504,-58.62386
288,Retiro,AR,Argentina,07,Buenos Aires F.D.,America/Argentina/Buenos_Aires,-3,-34.58333,-58.38333
289,Resistencia,AR,Argentina,03,Chaco,America/Argentina/Cordoba,-3,-27.46363,-58.98665
290,Reconquista,AR,Argentina,21,Santa Fe,America/Argentina/Cordoba,-3,-29.15000,-59.65000
291,Quilmes,AR,Argentina,01,Buenos Aires,America/Argentina/Buenos_Aires,-3,-34.72065,-58.25454
292,Puerto Rico,AR,Argentina,14,Misiones,America/Argentina/Cordoba,-3,-26.80890,-55.02147
293,Puerto Iguazú,AR,Argentina,14,Misiones,America/Argentina/Cordoba,-3,-25.59912,-54.57355
294,Puerto Esperanza,AR,Argentina,14,Misiones,America/Argentina/Cordoba,-3,-26.02267,-54.61356
295,Puerto Eldorado,AR,Argentina,14,Misiones,America/Argentina/Cordoba,-3,-26.40843,-54.69463
296,Posadas,AR,Argentina,14,Misiones,America/Argentina/Cordoba,-3,-27.39184,-55.92379
297,Pontevedra,AR,Argentina,01,Buenos Aires,America/Argentina/Buenos_Aires,-3,-34.74947,-58.70158
298,Pirané,AR,Argentina,09,Formosa,America/Argentina/Cordoba,-3,-25.73271,-59.10989
299,Pilar,AR,Argentina,01,Buenos Aires,America/Argentina/Buenos_Aires,-3,-34.45867,-58.91398
300,Paso de los Libres,AR,Argentina,06,Corrientes,America/Argentina/Cordoba,-3,-29.71251,-57.08771
301,Oberá,AR,Argentina,14,Misiones,America/Argentina/Cordoba,-3,-27.48683,-55.11994
302,Nogoyá,AR,Argentina,08,Entre Rios,America/Argentina/Cordoba,-3,-32.39375,-59.78955
303,Necochea,AR,Argentina,01,Buenos Aires,America/Argentina/Buenos_Aires,-3,-38.55450,-58.73961
304,Muñiz,AR,Argentina,01,Buenos Aires,America/Argentina/Buenos_Aires,-3,-34.55622,-58.70739
305,Morón,AR,Argentina,01,Buenos Aires,America/Argentina/Buenos_Aires,-3,-34.65118,-58.62205
306,Monte Caseros,AR,Argentina,06,Corrientes,America/Argentina/Cordoba,-3,-30.25180,-57.63537
307,Montecarlo,AR,Argentina,14,Misiones,America/Argentina/Cordoba,-3,-26.56849,-54.75790
308,Merlo,AR,Argentina,01,Buenos Aires,America/Argentina/Buenos_Aires,-3,-34.66536,-58.72744
309,Mercedes,AR,Argentina,01,Buenos Aires,America/Argentina/Buenos_Aires,-3,-34.65072,-59.43143
310,Mercedes,AR,Argentina,06,Corrientes,America/Argentina/Cordoba,-3,-29.18416,-58.07519
311,Haedo,AR,Argentina,01,Buenos Aires,America/Argentina/Buenos_Aires,-3,-34.64239,-58.59212
312,Mar del Plata,AR,Argentina,01,Buenos Aires,America/Argentina/Buenos_Aires,-3,-38.00042,-57.55620
313,Luján,AR,Argentina,01,Buenos Aires,America/Argentina/Buenos_Aires,-3,-34.56640,-59.11478
314,Los Polvorines,AR,Argentina,01,Buenos Aires,America/Argentina/Buenos_Aires,-3,-34.50316,-58.70596
315,La Plata,AR,Argentina,01,Buenos Aires,America/Argentina/Buenos_Aires,-3,-34.92126,-57.95442
316,La Paz,AR,Argentina,08,Entre Rios,America/Argentina/Cordoba,-3,-30.74179,-59.64517
317,Jardín América,AR,Argentina,14,Misiones,America/Argentina/Cordoba,-3,-27.04346,-55.22698
318,Ituzaingó,AR,Argentina,06,Corrientes,America/Argentina/Cordoba,-3,-27.58504,-56.68707
319,Hurlingham,AR,Argentina,01,Buenos Aires,America/Argentina/Buenos_Aires,-3,-34.59040,-58.62904
320,Gualeguaychú,AR,Argentina,08,Entre Rios,America/Argentina/Cordoba,-3,-33.00777,-58.51836
321,Gualeguay,AR,Argentina,08,Entre Rios,America/Argentina/Cordoba,-3,-33.14091,-59.31257
322,Goya,AR,Argentina,06,Corrientes,America/Argentina/Cordoba,-3,-29.13995,-59.26343
323,Gobernador Virasora,AR,Argentina,06,Corrientes,America/Argentina/Cordoba,-3,-28.05000,-56.03333
324,General Pacheco,AR,Argentina,01,Buenos Aires,America/Argentina/Buenos_Aires,-3,-34.45256,-58.64312
325,General José de San Martín,AR,Argentina,03,Chaco,America/Argentina/Cordoba,-3,-26.53643,-59.34138
326,Garupá,AR,Argentina,14,Misiones,America/Argentina/Cordoba,-3,-27.48315,-55.82924
327,Formosa,AR,Argentina,09,Formosa,America/Argentina/Cordoba,-3,-26.18489,-58.17313
328,Fontana,AR,Argentina,03,Chaco,America/Argentina/Cordoba,-3,-27.42039,-59.03731
329,Federal,AR,Argentina,08,Entre Rios,America/Argentina/Cordoba,-3,-30.95619,-58.77970
330,Esquina,AR,Argentina,06,Corrientes,America/Argentina/Cordoba,-3,-30.01476,-59.52890
331,El Soberbio,AR,Argentina,14,Misiones,America/Argentina/Cordoba,-3,-27.29662,-54.19811
332,El Palomar,AR,Argentina,01,Buenos Aires,America/Argentina/Buenos_Aires,-3,-34.61771,-58.60153
333,Don Torcuato,AR,Argentina,01,Buenos Aires,America/Argentina/Buenos_Aires,-3,-34.49459,-58.62729
334,Dolores,AR,Argentina,01,Buenos Aires,America/Argentina/Buenos_Aires,-3,-36.31539,-57.67546
335,Curuzú Cuatiá,AR,Argentina,06,Corrientes,America/Argentina/Cordoba,-3,-29.79145,-58.04990
336,Corrientes,AR,Argentina,06,Corrientes,America/Argentina/Cordoba,-3,-27.46784,-58.83440
337,Concordia,AR,Argentina,08,Entre Rios,America/Argentina/Cordoba,-3,-31.39195,-58.01706
338,Concepción del Uruguay,AR,Argentina,08,Entre Rios,America/Argentina/Cordoba,-3,-32.48463,-58.23217
339,Colón,AR,Argentina,08,Entre Rios,America/Argentina/Cordoba,-3,-32.22312,-58.14426
340,Colegiales,AR,Argentina,07,Buenos Aires F.D.,America/Argentina/Buenos_Aires,-3,-34.57365,-58.44924
341,Chascomús,AR,Argentina,01,Buenos Aires,America/Argentina/Buenos_Aires,-3,-35.57681,-58.01215
342,Chajarí,AR,Argentina,08,Entre Rios,America/Argentina/Cordoba,-3,-30.75482,-57.98196
343,Castelar,AR,Argentina,01,Buenos Aires,America/Argentina/Buenos_Aires,-3,-34.65142,-58.64074
344,Campana,AR,Argentina,01,Buenos Aires,America/Argentina/Buenos_Aires,-3,-34.16327,-58.95919
345,Buenos Aires,AR,Argentina,07,Buenos Aires F.D.,America/Argentina/Buenos_Aires,-3,-34.61315,-58.37723
346,Boedo,AR,Argentina,07,Buenos Aires F.D.,America/Argentina/Buenos_Aires,-3,-34.63333,-58.41667
347,Berazategui,AR,Argentina,01,Buenos Aires,America/Argentina/Buenos_Aires,-3,-34.76531,-58.21278
348,Bella Vista,AR,Argentina,01,Buenos Aires,America/Argentina/Buenos_Aires,-3,-34.56510,-58.69034
349,Belgrano,AR,Argentina,07,Buenos Aires F.D.,America/Argentina/Buenos_Aires,-3,-34.56270,-58.45829
350,Barranqueras,AR,Argentina,03,Chaco,America/Argentina/Cordoba,-3,-27.48132,-58.93925
351,Barracas,AR,Argentina,07,Buenos Aires F.D.,America/Argentina/Buenos_Aires,-3,-34.64966,-58.38341
352,Balcarce,AR,Argentina,01,Buenos Aires,America/Argentina/Buenos_Aires,-3,-37.84638,-58.25549
353,Azul,AR,Argentina,01,Buenos Aires,America/Argentina/Buenos_Aires,-3,-36.77803,-59.85848
354,Avellaneda,AR,Argentina,21,Santa Fe,America/Argentina/Cordoba,-3,-29.11761,-59.65834
355,Aristóbulo del Valle,AR,Argentina,14,Misiones,America/Argentina/Cordoba,-3,-27.09571,-54.89344
356,Zapala,AR,Argentina,15,Neuquen,America/Argentina/Salta,-3,-38.90056,-70.06674
357,Yerba Buena,AR,Argentina,24,Tucuman,America/Argentina/Tucuman,-3,-26.81298,-65.29543
358,Villa Regina,AR,Argentina,16,Rio Negro,America/Argentina/Salta,-3,-39.09631,-67.08374
359,Villa Paula de Sarmiento,AR,Argentina,18,San Juan,America/Argentina/San_Juan,-3,-31.49330,-68.53838
360,Villa Nueva,AR,Argentina,05,Cordoba,America/Argentina/Cordoba,-3,-32.43289,-63.24811
361,Villa María,AR,Argentina,05,Cordoba,America/Argentina/Cordoba,-3,-32.40751,-63.24016
362,Villa Dolores,AR,Argentina,05,Cordoba,America/Argentina/Cordoba,-3,-31.94504,-65.19025
363,Villa Constitución,AR,Argentina,21,Santa Fe,America/Argentina/Cordoba,-3,-33.22778,-60.32970
364,Villa Carlos Paz,AR,Argentina,05,Cordoba,America/Argentina/Cordoba,-3,-31.41830,-64.49008
365,Villa Ángela,AR,Argentina,03,Chaco,America/Argentina/Cordoba,-3,-27.57679,-60.71114
366,Villa Allende,AR,Argentina,05,Cordoba,America/Argentina/Cordoba,-3,-31.29368,-64.29770
367,Viedma,AR,Argentina,16,Rio Negro,America/Argentina/Salta,-3,-40.81519,-63.00040
368,Victoria,AR,Argentina,08,Entre Rios,America/Argentina/Cordoba,-3,-32.61841,-60.15478
369,Vera,AR,Argentina,21,Santa Fe,America/Argentina/Cordoba,-3,-29.45930,-60.21261
1392,Sevlievo,BG,Bulgaria,41,Gabrovo,Europe/Sofia,+3,43.02295,25.10364
370,Venado Tuerto,AR,Argentina,21,Santa Fe,America/Argentina/Cordoba,-3,-33.74556,-61.96885
371,Veinticinco de Mayo,AR,Argentina,01,Buenos Aires,America/Argentina/Buenos_Aires,-3,-35.43247,-60.17156
372,Ushuaia,AR,Argentina,23,Tierra del Fuego,America/Argentina/Ushuaia,-3,-54.81084,-68.31591
373,Unquillo,AR,Argentina,05,Cordoba,America/Argentina/Cordoba,-3,-31.23717,-64.31176
374,Tres Isletas,AR,Argentina,03,Chaco,America/Argentina/Cordoba,-3,-26.34067,-60.43207
375,Tres Arroyos,AR,Argentina,01,Buenos Aires,America/Argentina/Buenos_Aires,-3,-38.37694,-60.27563
376,Trelew,AR,Argentina,04,Chubut,America/Argentina/Catamarca,-3,-43.24895,-65.30505
377,Termas de Río Hondo,AR,Argentina,22,Santiago del Estero,America/Argentina/Cordoba,-3,-27.49362,-64.85972
378,Tartagal,AR,Argentina,17,Salta,America/Argentina/Salta,-3,-22.51682,-63.80560
379,Tafí Viejo,AR,Argentina,24,Tucuman,America/Argentina/Tucuman,-3,-26.73330,-65.26146
380,Sunchales,AR,Argentina,21,Santa Fe,America/Argentina/Cordoba,-3,-30.94404,-61.56148
381,Santo Tomé,AR,Argentina,21,Santa Fe,America/Argentina/Cordoba,-3,-31.66274,-60.76530
382,Santiago del Estero,AR,Argentina,22,Santiago del Estero,America/Argentina/Cordoba,-3,-27.80047,-64.26285
383,Santa Rosa,AR,Argentina,11,La Pampa,America/Argentina/Salta,-3,-36.61617,-64.28991
384,Santa Lucía,AR,Argentina,18,San Juan,America/Argentina/San_Juan,-3,-31.54055,-68.49794
385,Santa Fe,AR,Argentina,21,Santa Fe,America/Argentina/Cordoba,-3,-31.64881,-60.70868
386,San Salvador de Jujuy,AR,Argentina,10,Jujuy,America/Argentina/Jujuy,-3,-24.19280,-65.29342
387,San Ramón de la Nueva Orán,AR,Argentina,17,Salta,America/Argentina/Salta,-3,-23.13705,-64.32426
388,San Rafael,AR,Argentina,13,Mendoza,America/Argentina/Mendoza,-3,-34.61531,-68.33238
389,San Pedro de Jujuy,AR,Argentina,10,Jujuy,America/Argentina/Jujuy,-3,-24.23127,-64.86614
390,San Nicolás de los Arroyos,AR,Argentina,01,Buenos Aires,America/Argentina/Buenos_Aires,-3,-33.33425,-60.21080
391,San Miguel de Tucumán,AR,Argentina,24,Tucuman,America/Argentina/Tucuman,-3,-26.81601,-65.21051
392,San Martín de los Andes,AR,Argentina,15,Neuquen,America/Argentina/Salta,-3,-40.15789,-71.35337
393,San Martín,AR,Argentina,13,Mendoza,America/Argentina/Mendoza,-3,-33.08338,-68.47312
394,San Luis,AR,Argentina,19,San Luis,America/Argentina/San_Luis,-3,-33.29140,-66.32467
395,San Justo,AR,Argentina,21,Santa Fe,America/Argentina/Cordoba,-3,-30.78913,-60.59189
396,San Juan,AR,Argentina,18,San Juan,America/Argentina/San_Juan,-3,-31.53726,-68.52568
397,San José de Jáchal,AR,Argentina,18,San Juan,America/Argentina/San_Juan,-3,-30.24162,-68.74662
398,San Jorge,AR,Argentina,21,Santa Fe,America/Argentina/Cordoba,-3,-31.89618,-61.85984
399,San Francisco,AR,Argentina,05,Cordoba,America/Argentina/Cordoba,-3,-31.42497,-62.08404
400,Catamarca,AR,Argentina,02,Catamarca,America/Argentina/Catamarca,-3,-28.46957,-65.78524
401,San Antonio Oeste,AR,Argentina,16,Rio Negro,America/Argentina/Salta,-3,-40.73193,-64.94769
402,Salta,AR,Argentina,17,Salta,America/Argentina/Salta,-3,-24.80645,-65.41999
403,Rufino,AR,Argentina,21,Santa Fe,America/Argentina/Cordoba,-3,-34.26827,-62.71262
404,Rosario,AR,Argentina,21,Santa Fe,America/Argentina/Cordoba,-3,-32.94682,-60.63932
405,Río Tercero,AR,Argentina,05,Cordoba,America/Argentina/Cordoba,-3,-32.17675,-64.11295
406,Río Segundo,AR,Argentina,05,Cordoba,America/Argentina/Cordoba,-3,-31.65010,-63.91165
407,Río Grande,AR,Argentina,23,Tierra del Fuego,America/Argentina/Ushuaia,-3,-53.78773,-67.70975
408,Río Gallegos,AR,Argentina,20,Santa Cruz,America/Argentina/Rio_Gallegos,-3,-51.62530,-69.25229
409,Río Cuarto,AR,Argentina,05,Cordoba,America/Argentina/Cordoba,-3,-33.13044,-64.35272
410,Río Ceballos,AR,Argentina,05,Cordoba,America/Argentina/Cordoba,-3,-31.16970,-64.31750
411,Rawson,AR,Argentina,04,Chubut,America/Argentina/Catamarca,-3,-43.30031,-65.10564
412,Rafaela,AR,Argentina,21,Santa Fe,America/Argentina/Cordoba,-3,-31.25033,-61.48670
413,Quitilipi,AR,Argentina,03,Chaco,America/Argentina/Cordoba,-3,-26.87080,-60.21537
414,Punta Alta,AR,Argentina,01,Buenos Aires,America/Argentina/Buenos_Aires,-3,-38.88050,-62.07503
415,Puerto Madryn,AR,Argentina,04,Chubut,America/Argentina/Catamarca,-3,-42.76848,-65.03827
416,Profesor Salvador Mazza,AR,Argentina,17,Salta,America/Argentina/Salta,-3,-22.04897,-63.69075
417,Presidencia Roque Sáenz Peña,AR,Argentina,03,Chaco,America/Argentina/Cordoba,-3,-26.79095,-60.44132
418,Pocito,AR,Argentina,18,San Juan,America/Argentina/San_Juan,-3,-31.68333,-68.58333
419,Plottier,AR,Argentina,15,Neuquen,America/Argentina/Salta,-3,-38.96667,-68.23333
420,Pergamino,AR,Argentina,01,Buenos Aires,America/Argentina/Buenos_Aires,-3,-33.89101,-60.57462
421,Pérez,AR,Argentina,21,Santa Fe,America/Argentina/Cordoba,-3,-32.99835,-60.76791
422,Paraná,AR,Argentina,08,Entre Rios,America/Argentina/Cordoba,-3,-31.73271,-60.52897
423,Palpalá,AR,Argentina,10,Jujuy,America/Argentina/Jujuy,-3,-24.25798,-65.21358
424,Olavarría,AR,Argentina,01,Buenos Aires,America/Argentina/Buenos_Aires,-3,-36.89384,-60.32319
425,Nueve de Julio,AR,Argentina,01,Buenos Aires,America/Argentina/Buenos_Aires,-3,-35.44394,-60.88463
426,Neuquén,AR,Argentina,15,Neuquen,America/Argentina/Salta,-3,-38.95078,-68.05920
427,Morteros,AR,Argentina,05,Cordoba,America/Argentina/Cordoba,-3,-30.71066,-62.00714
428,Monteros,AR,Argentina,24,Tucuman,America/Argentina/Tucuman,-3,-27.16825,-65.49892
429,Mendoza,AR,Argentina,13,Mendoza,America/Argentina/Mendoza,-3,-32.88946,-68.84582
430,Marcos Juárez,AR,Argentina,05,Cordoba,America/Argentina/Cordoba,-3,-32.69780,-62.10672
431,Machagai,AR,Argentina,03,Chaco,America/Argentina/Cordoba,-3,-26.92617,-60.04852
432,Lincoln,AR,Argentina,01,Buenos Aires,America/Argentina/Buenos_Aires,-3,-34.86819,-61.52929
433,Libertador General San Martín,AR,Argentina,10,Jujuy,America/Argentina/Jujuy,-3,-23.81305,-64.79353
434,Las Breñas,AR,Argentina,03,Chaco,America/Argentina/Cordoba,-3,-27.08819,-61.08217
435,La Rioja,AR,Argentina,12,La Rioja,America/Argentina/La_Rioja,-3,-29.41328,-66.85637
436,La Falda,AR,Argentina,05,Cordoba,America/Argentina/Cordoba,-3,-31.09321,-64.48448
437,La Calera,AR,Argentina,05,Cordoba,America/Argentina/Cordoba,-3,-31.34582,-64.33849
438,Laboulaye,AR,Argentina,05,Cordoba,America/Argentina/Cordoba,-3,-34.12688,-63.39083
439,Junín,AR,Argentina,01,Buenos Aires,America/Argentina/Buenos_Aires,-3,-34.59391,-60.94644
440,Joaquín V. González,AR,Argentina,17,Salta,America/Argentina/Salta,-3,-25.11364,-64.12628
441,Jesús María,AR,Argentina,05,Cordoba,America/Argentina/Cordoba,-3,-30.98153,-64.09424
442,Granadero Baigorria,AR,Argentina,21,Santa Fe,America/Argentina/Cordoba,-3,-32.85683,-60.71754
443,Gobernador Gálvez,AR,Argentina,21,Santa Fe,America/Argentina/Cordoba,-3,-33.03016,-60.64045
444,General Villegas,AR,Argentina,01,Buenos Aires,America/Argentina/Buenos_Aires,-3,-35.03264,-63.01484
445,General Roca,AR,Argentina,16,Rio Negro,America/Argentina/Salta,-3,-39.03333,-67.58333
446,General Pinedo,AR,Argentina,03,Chaco,America/Argentina/Cordoba,-3,-27.32534,-61.28101
447,General Pico,AR,Argentina,11,La Pampa,America/Argentina/Salta,-3,-35.65930,-63.75787
448,General Mosconi,AR,Argentina,17,Salta,America/Argentina/Salta,-3,-22.59617,-63.81100
449,Gálvez,AR,Argentina,21,Santa Fe,America/Argentina/Cordoba,-3,-32.02927,-61.22103
450,Firmat,AR,Argentina,21,Santa Fe,America/Argentina/Cordoba,-3,-33.45937,-61.48320
451,Famaillá,AR,Argentina,24,Tucuman,America/Argentina/Tucuman,-3,-27.05452,-65.40189
452,Esquel,AR,Argentina,04,Chubut,America/Argentina/Catamarca,-3,-42.91147,-71.31947
453,Esperanza,AR,Argentina,21,Santa Fe,America/Argentina/Cordoba,-3,-31.44880,-60.93173
454,Embarcación,AR,Argentina,17,Salta,America/Argentina/Salta,-3,-23.21003,-64.09965
455,Embalse,AR,Argentina,05,Cordoba,America/Argentina/Cordoba,-3,-32.20681,-64.40064
456,El Bolsón,AR,Argentina,16,Rio Negro,America/Argentina/Salta,-3,-41.96051,-71.53336
457,Diamante,AR,Argentina,08,Entre Rios,America/Argentina/Cordoba,-3,-32.06710,-60.64267
458,Deán Funes,AR,Argentina,05,Cordoba,America/Argentina/Cordoba,-3,-30.42498,-64.35274
459,Cutral-Có,AR,Argentina,15,Neuquen,America/Argentina/Salta,-3,-38.93424,-69.23052
460,Cruz del Eje,AR,Argentina,05,Cordoba,America/Argentina/Cordoba,-3,-30.72644,-64.80387
461,Crespo,AR,Argentina,08,Entre Rios,America/Argentina/Cordoba,-3,-32.03077,-60.30619
462,Cosquín,AR,Argentina,05,Cordoba,America/Argentina/Cordoba,-3,-31.24525,-64.46574
463,Coronel Suárez,AR,Argentina,01,Buenos Aires,America/Argentina/Buenos_Aires,-3,-37.45859,-61.93294
464,Coronda,AR,Argentina,21,Santa Fe,America/Argentina/Cordoba,-3,-31.97263,-60.91983
465,Córdoba,AR,Argentina,05,Cordoba,America/Argentina/Cordoba,-3,-31.40648,-64.18853
466,Comodoro Rivadavia,AR,Argentina,04,Chubut,America/Argentina/Catamarca,-3,-45.86256,-67.49400
467,Cipolletti,AR,Argentina,16,Rio Negro,America/Argentina/Salta,-3,-38.93392,-67.99032
468,Cinco Saltos,AR,Argentina,16,Rio Negro,America/Argentina/Salta,-3,-38.82225,-68.06293
469,Chivilcoy,AR,Argentina,01,Buenos Aires,America/Argentina/Buenos_Aires,-3,-34.89690,-60.01909
470,Chimbas,AR,Argentina,18,San Juan,America/Argentina/San_Juan,-3,-31.49313,-68.53263
471,Chilecito,AR,Argentina,12,La Rioja,America/Argentina/La_Rioja,-3,-29.16195,-67.49740
472,Charata,AR,Argentina,03,Chaco,America/Argentina/Cordoba,-3,-27.21787,-61.18738
473,Chacabuco,AR,Argentina,01,Buenos Aires,America/Argentina/Buenos_Aires,-3,-34.64203,-60.47124
474,Centenario,AR,Argentina,15,Neuquen,America/Argentina/Salta,-3,-38.82955,-68.13180
475,Caucete,AR,Argentina,18,San Juan,America/Argentina/San_Juan,-3,-31.65150,-68.28216
476,Catriel,AR,Argentina,16,Rio Negro,America/Argentina/Salta,-3,-37.87552,-67.79451
477,Juan José Castelli,AR,Argentina,03,Chaco,America/Argentina/Cordoba,-3,-25.94660,-60.62008
478,Casilda,AR,Argentina,21,Santa Fe,America/Argentina/Cordoba,-3,-33.04417,-61.16806
479,Carmen de Patagones,AR,Argentina,01,Buenos Aires,America/Argentina/Buenos_Aires,-3,-40.80255,-62.98349
480,Carcarañá,AR,Argentina,21,Santa Fe,America/Argentina/Cordoba,-3,-32.85679,-61.15331
481,Capitán Bermúdez,AR,Argentina,21,Santa Fe,America/Argentina/Cordoba,-3,-32.82262,-60.71852
482,Cañada de Gómez,AR,Argentina,21,Santa Fe,America/Argentina/Cordoba,-3,-32.81636,-61.39493
483,Caleta Olivia,AR,Argentina,20,Santa Cruz,America/Argentina/Rio_Gallegos,-3,-46.44785,-67.52274
484,Bell Ville,AR,Argentina,05,Cordoba,America/Argentina/Cordoba,-3,-32.63021,-62.68883
485,Bella Vista,AR,Argentina,24,Tucuman,America/Argentina/Tucuman,-3,-27.03424,-65.30196
486,Bahía Blanca,AR,Argentina,01,Buenos Aires,America/Argentina/Buenos_Aires,-3,-38.71760,-62.26545
487,Arroyo Seco,AR,Argentina,21,Santa Fe,America/Argentina/Cordoba,-3,-33.15489,-60.50863
488,Arroyito,AR,Argentina,05,Cordoba,America/Argentina/Cordoba,-3,-31.41917,-63.05084
489,Arrecifes,AR,Argentina,01,Buenos Aires,America/Argentina/Buenos_Aires,-3,-34.06306,-60.10261
490,Añatuya,AR,Argentina,22,Santiago del Estero,America/Argentina/Cordoba,-3,-28.46020,-62.83354
491,Alta Gracia,AR,Argentina,05,Cordoba,America/Argentina/Cordoba,-3,-31.64978,-64.42972
492,Allen,AR,Argentina,16,Rio Negro,America/Argentina/Salta,-3,-38.97736,-67.82714
493,Alderetes,AR,Argentina,24,Tucuman,America/Argentina/Tucuman,-3,-26.81787,-65.14202
494,Albardón,AR,Argentina,18,San Juan,America/Argentina/San_Juan,-3,-31.43722,-68.52556
495,Aguilares,AR,Argentina,24,Tucuman,America/Argentina/Tucuman,-3,-27.43150,-65.61465
496,Balvanera,AR,Argentina,07,Buenos Aires F.D.,America/Argentina/Buenos_Aires,-3,-34.61032,-58.39766
497,Villa Santa Rita,AR,Argentina,07,Buenos Aires F.D.,America/Argentina/Buenos_Aires,-3,-34.61082,-58.48100
498,Villa Mercedes,AR,Argentina,19,San Luis,America/Argentina/San_Luis,-3,-33.67571,-65.45783
499,San Miguel,AR,Argentina,01,Buenos Aires,America/Argentina/Buenos_Aires,-3,-34.54335,-58.71229
500,San Carlos de Bariloche,AR,Argentina,16,Rio Negro,America/Argentina/Salta,-3,-41.14557,-71.30822
501,Adrogué,AR,Argentina,01,Buenos Aires,America/Argentina/Buenos_Aires,-3,-34.80041,-58.38384
502,Ingeniero Pablo Nogués,AR,Argentina,01,Buenos Aires,America/Argentina/Buenos_Aires,-3,-34.47775,-58.70652
503,Villa Sarmiento,AR,Argentina,01,Buenos Aires,America/Argentina/Buenos_Aires,-3,-34.63364,-58.57047
504,José C. Paz,AR,Argentina,01,Buenos Aires,America/Argentina/Buenos_Aires,-3,-34.51541,-58.76813
505,Pago Pago,AS,American Samoa,010,Eastern District,Pacific/Pago_Pago,-11,-14.27806,-170.70250
506,Döbling,AT,Austria,09,Vienna,Europe/Vienna,+2,48.25000,16.33333
507,Wilten,AT,Austria,07,Tyrol,Europe/Vienna,+2,47.25829,11.38808
508,Wiener Neustadt,AT,Austria,03,Lower Austria,Europe/Vienna,+2,47.80485,16.23196
509,Vienna,AT,Austria,09,Vienna,Europe/Vienna,+2,48.20849,16.37208
510,Wetzelsdorf,AT,Austria,06,Styria,Europe/Vienna,+2,47.05293,15.39923
511,Wels,AT,Austria,04,Upper Austria,Europe/Vienna,+2,48.16667,14.03333
512,Villach,AT,Austria,02,Carinthia,Europe/Vienna,+2,46.61028,13.85583
513,Telfs,AT,Austria,07,Tyrol,Europe/Vienna,+2,47.30707,11.06817
514,Straßgang,AT,Austria,06,Styria,Europe/Vienna,+2,47.03333,15.40000
515,Stockerau,AT,Austria,03,Lower Austria,Europe/Vienna,+2,48.38333,16.21667
516,Steyr,AT,Austria,04,Upper Austria,Europe/Vienna,+2,48.04274,14.42127
517,Simmering,AT,Austria,09,Vienna,Europe/Vienna,+2,48.18333,16.43333
518,Sankt Pölten,AT,Austria,03,Lower Austria,Europe/Vienna,+2,48.20000,15.63333
519,Sankt Peter,AT,Austria,06,Styria,Europe/Vienna,+2,47.05000,15.46667
520,Sankt Peter,AT,Austria,02,Carinthia,Europe/Vienna,+2,46.62978,14.34016
521,Sankt Martin,AT,Austria,02,Carinthia,Europe/Vienna,+2,46.61667,14.28333
522,Salzburg,AT,Austria,05,Salzburg,Europe/Vienna,+2,47.79941,13.04399
523,Saalfelden am Steinernen Meer,AT,Austria,05,Salzburg,Europe/Vienna,+2,47.42681,12.84800
524,Pradl,AT,Austria,07,Tyrol,Europe/Vienna,+2,47.26539,11.41520
525,Perchtoldsdorf,AT,Austria,03,Lower Austria,Europe/Vienna,+2,48.11935,16.26607
526,Ottakring,AT,Austria,09,Vienna,Europe/Vienna,+2,48.21667,16.30000
527,Mödling,AT,Austria,03,Lower Austria,Europe/Vienna,+2,48.08605,16.28921
528,Meidling,AT,Austria,09,Vienna,Europe/Vienna,+2,48.16667,16.33333
529,Lustenau,AT,Austria,08,Vorarlberg,Europe/Vienna,+2,47.42642,9.65851
530,Linz,AT,Austria,04,Upper Austria,Europe/Vienna,+2,48.30639,14.28611
531,Klosterneuburg,AT,Austria,03,Lower Austria,Europe/Vienna,+2,48.30521,16.32522
532,Klagenfurt am Wörthersee,AT,Austria,02,Carinthia,Europe/Vienna,+2,46.62472,14.30528
533,Innsbruck,AT,Austria,07,Tyrol,Europe/Vienna,+2,47.26266,11.39454
534,Innere Stadt,AT,Austria,09,Vienna,Europe/Vienna,+2,48.20906,16.37135
535,Penzing,AT,Austria,09,Vienna,Europe/Vienna,+2,48.20000,16.26667
536,Hötting,AT,Austria,07,Tyrol,Europe/Vienna,+2,47.26815,11.36868
537,Hohenems,AT,Austria,08,Vorarlberg,Europe/Vienna,+2,47.36121,9.68694
538,Hietzing,AT,Austria,09,Vienna,Europe/Vienna,+2,48.18623,16.29650
539,Hernals,AT,Austria,09,Vienna,Europe/Vienna,+2,48.23333,16.26667
540,Graz,AT,Austria,06,Styria,Europe/Vienna,+2,47.06667,15.45000
541,Fünfhaus,AT,Austria,09,Vienna,Europe/Vienna,+2,48.19596,16.31830
542,Floridsdorf,AT,Austria,09,Vienna,Europe/Vienna,+2,48.25000,16.40000
543,Feldkirch,AT,Austria,08,Vorarlberg,Europe/Vienna,+2,47.23306,9.60000
544,Essling,AT,Austria,09,Vienna,Europe/Vienna,+2,48.21289,16.52442
545,Eggenberg,AT,Austria,06,Styria,Europe/Vienna,+2,47.07000,15.39871
546,Dornbirn,AT,Austria,08,Vorarlberg,Europe/Vienna,+2,47.41427,9.74195
547,Bregenz,AT,Austria,08,Vorarlberg,Europe/Vienna,+2,47.50311,9.74710
548,Baden,AT,Austria,03,Lower Austria,Europe/Vienna,+2,48.00543,16.23264
549,Aspern,AT,Austria,09,Vienna,Europe/Vienna,+2,48.21806,16.48306
550,Amstetten,AT,Austria,03,Lower Austria,Europe/Vienna,+2,48.12290,14.87206
551,Favoriten,AT,Austria,09,Vienna,Europe/Vienna,+2,48.16116,16.38233
552,Donaustadt,AT,Austria,09,Vienna,Europe/Vienna,+2,48.23330,16.46002
553,Jakomini,AT,Austria,06,Styria,Europe/Vienna,+2,47.05441,15.44984
554,Lend,AT,Austria,06,Styria,Europe/Vienna,+2,47.08256,15.41589
555,Geidorf,AT,Austria,06,Styria,Europe/Vienna,+2,47.08393,15.44400
556,Sankt Leonhard,AT,Austria,06,Styria,Europe/Vienna,+2,47.06924,15.45784
557,Andritz,AT,Austria,06,Styria,Europe/Vienna,+2,47.11387,15.42348
558,Gries,AT,Austria,06,Styria,Europe/Vienna,+2,47.06236,15.42421
559,Währing,AT,Austria,09,Vienna,Europe/Vienna,+2,48.22611,16.34484
560,Landstraße,AT,Austria,09,Vienna,Europe/Vienna,+2,48.20190,16.38792
561,Margareten,AT,Austria,09,Vienna,Europe/Vienna,+2,48.18550,16.35373
562,Mariahilf,AT,Austria,09,Vienna,Europe/Vienna,+2,48.19571,16.35215
563,Neubau,AT,Austria,09,Vienna,Europe/Vienna,+2,48.20172,16.34715
564,Josefstadt,AT,Austria,09,Vienna,Europe/Vienna,+2,48.21243,16.34549
565,Alsergrund,AT,Austria,09,Vienna,Europe/Vienna,+2,48.22321,16.35506
566,Brigittenau,AT,Austria,09,Vienna,Europe/Vienna,+2,48.24275,16.37551
567,Scarborough,AU,Australia,08,Western Australia,Australia/Perth,+8,-31.89578,115.76431
568,Rockingham,AU,Australia,08,Western Australia,Australia/Perth,+8,-32.27682,115.72978
569,Perth,AU,Australia,08,Western Australia,Australia/Perth,+8,-31.95224,115.86140
570,Mount Isa,AU,Australia,04,Queensland,Australia/Brisbane,+10,-20.72523,139.49727
571,Morphett Vale,AU,Australia,05,South Australia,Australia/Adelaide,+9,-35.13333,138.51667
572,Mandurah,AU,Australia,08,Western Australia,Australia/Perth,+8,-32.52690,115.72170
573,Kwinana,AU,Australia,08,Western Australia,Australia/Perth,+8,-32.23013,115.78128
574,Gosnells,AU,Australia,08,Western Australia,Australia/Perth,+8,-32.08100,116.00540
575,Geraldton,AU,Australia,08,Western Australia,Australia/Perth,+8,-28.77897,114.61459
576,Gawler,AU,Australia,05,South Australia,Australia/Adelaide,+9,-34.60251,138.74902
577,Darwin,AU,Australia,03,Northern Territory,Australia/Darwin,+9,-12.46113,130.84185
578,Byford,AU,Australia,08,Western Australia,Australia/Perth,+8,-32.22099,116.00900
579,Busselton,AU,Australia,08,Western Australia,Australia/Perth,+8,-33.65249,115.34550
580,Bunbury,AU,Australia,08,Western Australia,Australia/Perth,+8,-33.32711,115.64137
581,Australind,AU,Australia,08,Western Australia,Australia/Perth,+8,-33.27920,115.71504
582,Alice Springs,AU,Australia,03,Northern Territory,Australia/Darwin,+9,-23.69748,133.88362
583,Albany,AU,Australia,08,Western Australia,Australia/Perth,+8,-35.02692,117.88369
584,Adelaide,AU,Australia,05,South Australia,Australia/Adelaide,+9,-34.92866,138.59863
585,Yarraville,AU,Australia,07,Victoria,Australia/Melbourne,+10,-37.81667,144.90000
586,Wollert,AU,Australia,07,Victoria,Australia/Melbourne,+10,-37.58333,145.03333
587,Wodonga,AU,Australia,07,Victoria,Australia/Melbourne,+10,-36.12179,146.88809
588,Wheelers Hill,AU,Australia,07,Victoria,Australia/Melbourne,+10,-37.90000,145.18333
589,Westmead,AU,Australia,02,New South Wales,Australia/Sydney,+10,-33.80383,150.98768
590,Werribee,AU,Australia,07,Victoria,Australia/Melbourne,+10,-37.90000,144.66667
591,Warwick,AU,Australia,04,Queensland,Australia/Brisbane,+10,-28.21901,152.03438
592,Warrnambool,AU,Australia,07,Victoria,Australia/Melbourne,+10,-38.38176,142.48799
593,Warragul,AU,Australia,07,Victoria,Australia/Melbourne,+10,-38.15912,145.93118
594,Wantirna South,AU,Australia,07,Victoria,Australia/Melbourne,+10,-37.88333,145.21667
595,Wangaratta,AU,Australia,07,Victoria,Australia/Melbourne,+10,-36.35846,146.32056
596,Wahroonga,AU,Australia,02,New South Wales,Australia/Sydney,+10,-33.71816,151.11561
597,Upper Coomera,AU,Australia,04,Queensland,Australia/Brisbane,+10,-27.87683,153.28572
598,Tuggeranong Administrative District,AU,Australia,01,Australian Capital Territory,Australia/Sydney,+10,-35.41647,149.06954
599,Truganina,AU,Australia,07,Victoria,Australia/Melbourne,+10,-37.81667,144.75000
600,Traralgon,AU,Australia,07,Victoria,Australia/Melbourne,+10,-38.19528,146.54150
601,Townsville,AU,Australia,04,Queensland,Australia/Brisbane,+10,-19.26639,146.80569
602,Toowoomba,AU,Australia,04,Queensland,Australia/Brisbane,+10,-27.56056,151.95386
603,Thornbury,AU,Australia,07,Victoria,Australia/Melbourne,+10,-37.75819,145.00583
604,Thomastown,AU,Australia,07,Victoria,Australia/Melbourne,+10,-37.68333,145.01667
605,Templestowe,AU,Australia,07,Victoria,Australia/Melbourne,+10,-37.75405,145.14864
606,Tarneit,AU,Australia,07,Victoria,Australia/Melbourne,+10,-37.83634,144.65952
607,Taree,AU,Australia,02,New South Wales,Australia/Sydney,+10,-31.91099,152.45387
608,Tamworth,AU,Australia,02,New South Wales,Australia/Sydney,+10,-31.09048,150.92905
609,Sydney,AU,Australia,02,New South Wales,Australia/Sydney,+10,-33.86785,151.20732
610,Surry Hills,AU,Australia,02,New South Wales,Australia/Sydney,+10,-33.88374,151.21282
611,Surfers Paradise,AU,Australia,04,Queensland,Australia/Brisbane,+10,-28.00274,153.42999
612,Sunbury,AU,Australia,07,Victoria,Australia/Melbourne,+10,-37.57742,144.72607
613,Strathfield,AU,Australia,02,New South Wales,Australia/Sydney,+10,-33.88096,151.07986
614,Springvale,AU,Australia,07,Victoria,Australia/Melbourne,+10,-37.94853,145.15274
615,South Yarra,AU,Australia,07,Victoria,Australia/Melbourne,+10,-37.83834,144.99149
616,Southport,AU,Australia,04,Queensland,Australia/Brisbane,+10,-27.96724,153.39796
617,Shepparton,AU,Australia,07,Victoria,Australia/Melbourne,+10,-36.38047,145.39867
618,Seven Hills,AU,Australia,02,New South Wales,Australia/Sydney,+10,-33.78333,150.93333
619,Seaford,AU,Australia,07,Victoria,Australia/Melbourne,+10,-38.10000,145.13333
620,Saint Kilda,AU,Australia,07,Victoria,Australia/Melbourne,+10,-37.86760,144.98099
621,Saint Ives,AU,Australia,02,New South Wales,Australia/Sydney,+10,-33.72976,151.15977
622,Saint Albans,AU,Australia,07,Victoria,Australia/Melbourne,+10,-37.73333,144.80000
623,Ryde,AU,Australia,02,New South Wales,Australia/Sydney,+10,-33.81880,151.10620
624,Rowville,AU,Australia,07,Victoria,Australia/Melbourne,+10,-37.93333,145.23333
625,Rockhampton,AU,Australia,04,Queensland,Australia/Brisbane,+10,-23.38032,150.50595
626,Rockdale,AU,Australia,02,New South Wales,Australia/Sydney,+10,-33.95000,151.13333
627,Ringwood,AU,Australia,07,Victoria,Australia/Melbourne,+10,-37.81667,145.23333
628,Richmond,AU,Australia,07,Victoria,Australia/Melbourne,+10,-37.81819,145.00176
629,Reservoir,AU,Australia,07,Victoria,Australia/Melbourne,+10,-37.71667,145.00000
630,Quakers Hill,AU,Australia,02,New South Wales,Australia/Sydney,+10,-33.73333,150.88333
631,Preston,AU,Australia,07,Victoria,Australia/Melbourne,+10,-37.75000,145.01667
632,Port Melbourne,AU,Australia,07,Victoria,Australia/Melbourne,+10,-37.83961,144.94228
633,Port Macquarie,AU,Australia,02,New South Wales,Australia/Sydney,+10,-31.43084,152.90894
634,Point Cook,AU,Australia,07,Victoria,Australia/Melbourne,+10,-37.91482,144.75088
635,Pascoe Vale,AU,Australia,07,Victoria,Australia/Melbourne,+10,-37.73333,144.93333
636,Palm Beach,AU,Australia,04,Queensland,Australia/Brisbane,+10,-28.11694,153.46584
637,Pakenham,AU,Australia,07,Victoria,Australia/Melbourne,+10,-38.07018,145.47411
638,Orange,AU,Australia,02,New South Wales,Australia/Sydney,+10,-33.28397,149.10018
639,Officer,AU,Australia,07,Victoria,Australia/Melbourne,+10,-38.05916,145.40947
640,North Melbourne,AU,Australia,07,Victoria,Australia/Melbourne,+10,-37.79798,144.94512
641,Northcote,AU,Australia,07,Victoria,Australia/Melbourne,+10,-37.76667,145.00000
642,Noble Park,AU,Australia,07,Victoria,Australia/Melbourne,+10,-37.96667,145.16667
643,Newcastle,AU,Australia,02,New South Wales,Australia/Sydney,+10,-32.92953,151.78010
644,Nerang,AU,Australia,04,Queensland,Australia/Brisbane,+10,-27.98941,153.33633
645,Narre Warren,AU,Australia,07,Victoria,Australia/Melbourne,+10,-38.03333,145.30000
646,Narangba,AU,Australia,04,Queensland,Australia/Brisbane,+10,-27.20338,152.95923
647,Mulgrave,AU,Australia,07,Victoria,Australia/Melbourne,+10,-37.92845,145.17708
648,Mount Waverley,AU,Australia,07,Victoria,Australia/Melbourne,+10,-37.87709,145.12939
649,Mount Martha,AU,Australia,07,Victoria,Australia/Melbourne,+10,-38.26667,145.01667
650,Mount Gambier,AU,Australia,05,South Australia,Australia/Adelaide,+9,-37.83180,140.77919
651,Mount Eliza,AU,Australia,07,Victoria,Australia/Melbourne,+10,-38.18333,145.08333
652,Mount Druitt,AU,Australia,02,New South Wales,Australia/Sydney,+10,-33.76667,150.81667
653,Mosman,AU,Australia,02,New South Wales,Australia/Sydney,+10,-33.83902,151.23956
654,Mornington,AU,Australia,07,Victoria,Australia/Melbourne,+10,-38.21792,145.03876
655,Morayfield,AU,Australia,04,Queensland,Australia/Brisbane,+10,-27.10876,152.94907
656,South Morang,AU,Australia,07,Victoria,Australia/Melbourne,+10,-37.65000,145.10000
657,Mooroolbark,AU,Australia,07,Victoria,Australia/Melbourne,+10,-37.78247,145.31682
658,Moonee Ponds,AU,Australia,07,Victoria,Australia/Melbourne,+10,-37.76667,144.91667
659,Mitcham,AU,Australia,07,Victoria,Australia/Melbourne,+10,-37.81667,145.20000
660,Miranda,AU,Australia,02,New South Wales,Australia/Sydney,+10,-34.03857,151.10005
661,Mill Park,AU,Australia,07,Victoria,Australia/Melbourne,+10,-37.66667,145.06667
662,Mildura,AU,Australia,07,Victoria,Australia/Melbourne,+10,-34.18551,142.16251
663,Merrylands,AU,Australia,02,New South Wales,Australia/Sydney,+10,-33.83333,150.98333
664,Mernda,AU,Australia,07,Victoria,Australia/Melbourne,+10,-37.60075,145.09555
665,Melbourne,AU,Australia,07,Victoria,Australia/Melbourne,+10,-37.81400,144.96332
666,Mascot,AU,Australia,02,New South Wales,Australia/Sydney,+10,-33.92598,151.19347
667,Maryborough,AU,Australia,04,Queensland,Australia/Brisbane,+10,-25.54073,152.70493
668,Marrickville,AU,Australia,02,New South Wales,Australia/Sydney,+10,-33.90741,151.15546
669,Maroubra,AU,Australia,02,New South Wales,Australia/Sydney,+10,-33.95000,151.23333
670,Manly,AU,Australia,02,New South Wales,Australia/Sydney,+10,-33.79798,151.28826
671,Maitland,AU,Australia,02,New South Wales,Australia/Sydney,+10,-32.73308,151.55740
672,Mackay,AU,Australia,04,Queensland,Australia/Brisbane,+10,-21.15345,149.16554
673,Liverpool,AU,Australia,02,New South Wales,Australia/Sydney,+10,-33.91938,150.92588
674,Lilydale,AU,Australia,07,Victoria,Australia/Melbourne,+10,-37.75000,145.35000
675,Lidcombe,AU,Australia,02,New South Wales,Australia/Sydney,+10,-33.86436,151.03970
676,Launceston,AU,Australia,06,Tasmania,Australia/Hobart,+10,-41.43876,147.13467
677,Lara,AU,Australia,07,Victoria,Australia/Melbourne,+10,-38.02388,144.40617
678,Langwarrin,AU,Australia,07,Victoria,Australia/Melbourne,+10,-38.16667,145.16667
679,Lalor,AU,Australia,07,Victoria,Australia/Melbourne,+10,-37.66667,145.01667
680,Lakemba,AU,Australia,02,New South Wales,Australia/Sydney,+10,-33.91972,151.07592
681,Kogarah,AU,Australia,02,New South Wales,Australia/Sydney,+10,-33.96810,151.13564
682,Keysborough,AU,Australia,07,Victoria,Australia/Melbourne,+10,-37.99116,145.17385
683,Kew,AU,Australia,07,Victoria,Australia/Melbourne,+10,-37.80639,145.03086
684,Kensington,AU,Australia,02,New South Wales,Australia/Sydney,+10,-33.92019,151.22241
685,Hornsby,AU,Australia,02,New South Wales,Australia/Sydney,+10,-33.70244,151.09931
686,Hobart,AU,Australia,06,Tasmania,Australia/Hobart,+10,-42.87936,147.32941
687,Hawthorn South,AU,Australia,07,Victoria,Australia/Melbourne,+10,-37.83290,145.03670
688,Hawthorn,AU,Australia,07,Victoria,Australia/Melbourne,+10,-37.81992,145.03580
689,Hampton Park,AU,Australia,07,Victoria,Australia/Melbourne,+10,-38.03333,145.25000
690,Griffith,AU,Australia,02,New South Wales,Australia/Sydney,+10,-34.28853,146.05093
691,Greenvale,AU,Australia,07,Victoria,Australia/Melbourne,+10,-37.63333,144.86667
692,Greensborough,AU,Australia,07,Victoria,Australia/Melbourne,+10,-37.70462,145.10302
693,Granville,AU,Australia,02,New South Wales,Australia/Sydney,+10,-33.84060,151.00748
694,Goulburn,AU,Australia,02,New South Wales,Australia/Sydney,+10,-34.75155,149.72086
695,Gold Coast,AU,Australia,04,Queensland,Australia/Brisbane,+10,-28.00029,153.43088
696,Glen Waverley,AU,Australia,07,Victoria,Australia/Melbourne,+10,-37.87811,145.16476
697,Glenroy,AU,Australia,07,Victoria,Australia/Melbourne,+10,-37.70000,144.93333
698,Glen Iris,AU,Australia,07,Victoria,Australia/Melbourne,+10,-37.86667,145.06667
699,Glenferrie,AU,Australia,07,Victoria,Australia/Melbourne,+10,-37.83333,145.05000
700,Gladstone,AU,Australia,04,Queensland,Australia/Brisbane,+10,-23.84852,151.25775
701,Geelong,AU,Australia,07,Victoria,Australia/Melbourne,+10,-38.14711,144.36069
702,Frankston East,AU,Australia,07,Victoria,Australia/Melbourne,+10,-38.13333,145.13333
703,Frankston,AU,Australia,07,Victoria,Australia/Melbourne,+10,-38.14458,145.12291
704,Footscray,AU,Australia,07,Victoria,Australia/Melbourne,+10,-37.80000,144.90000
705,Fairfield,AU,Australia,02,New South Wales,Australia/Sydney,+10,-33.86667,150.95000
706,Essendon,AU,Australia,07,Victoria,Australia/Melbourne,+10,-37.74981,144.91090
707,Epping,AU,Australia,07,Victoria,Australia/Melbourne,+10,-37.65000,145.03333
708,Epping,AU,Australia,02,New South Wales,Australia/Sydney,+10,-33.77271,151.08184
709,Engadine,AU,Australia,02,New South Wales,Australia/Sydney,+10,-34.06564,151.01266
710,Eltham,AU,Australia,07,Victoria,Australia/Melbourne,+10,-37.73333,145.15000
711,Eight Mile Plains,AU,Australia,04,Queensland,Australia/Brisbane,+10,-27.58333,153.10000
712,Eastwood,AU,Australia,02,New South Wales,Australia/Sydney,+10,-33.79176,151.08057
713,Earlwood,AU,Australia,02,New South Wales,Australia/Sydney,+10,-33.92090,151.12506
714,Dubbo,AU,Australia,02,New South Wales,Australia/Sydney,+10,-32.24295,148.60484
715,Doreen,AU,Australia,07,Victoria,Australia/Melbourne,+10,-37.60000,145.15000
716,Doncaster East,AU,Australia,07,Victoria,Australia/Melbourne,+10,-37.78761,145.14888
717,Doncaster,AU,Australia,07,Victoria,Australia/Melbourne,+10,-37.78828,145.12373
718,Deer Park,AU,Australia,07,Victoria,Australia/Melbourne,+10,-37.76722,144.76657
719,Deception Bay,AU,Australia,04,Queensland,Australia/Brisbane,+10,-27.19354,153.02631
720,Dandenong,AU,Australia,07,Victoria,Australia/Melbourne,+10,-37.98333,145.20000
721,Croydon,AU,Australia,07,Victoria,Australia/Melbourne,+10,-37.80000,145.28333
722,Cronulla,AU,Australia,02,New South Wales,Australia/Sydney,+10,-34.06251,151.14961
723,Cranbourne,AU,Australia,07,Victoria,Australia/Melbourne,+10,-38.11342,145.28326
724,Craigieburn,AU,Australia,07,Victoria,Australia/Melbourne,+10,-37.60000,144.95000
725,Corio,AU,Australia,07,Victoria,Australia/Melbourne,+10,-38.08333,144.38333
726,Coorparoo,AU,Australia,04,Queensland,Australia/Brisbane,+10,-27.49325,153.05826
727,Coogee,AU,Australia,02,New South Wales,Australia/Sydney,+10,-33.92050,151.25522
728,Coffs Harbour,AU,Australia,02,New South Wales,Australia/Sydney,+10,-30.29626,153.11351
729,Coburg,AU,Australia,07,Victoria,Australia/Melbourne,+10,-37.75000,144.96667
730,Clayton,AU,Australia,07,Victoria,Australia/Melbourne,+10,-37.91667,145.11667
731,Wollongong,AU,Australia,02,New South Wales,Australia/Sydney,+10,-34.42400,150.89345
732,Chatswood,AU,Australia,02,New South Wales,Australia/Sydney,+10,-33.80000,151.18333
733,Cessnock,AU,Australia,02,New South Wales,Australia/Sydney,+10,-32.83211,151.35623
734,Caulfield North,AU,Australia,07,Victoria,Australia/Melbourne,+10,-37.87390,145.02485
735,Castle Hill,AU,Australia,02,New South Wales,Australia/Sydney,+10,-33.73333,151.00000
736,Carrum Downs,AU,Australia,07,Victoria,Australia/Melbourne,+10,-38.09968,145.17248
737,Carnegie,AU,Australia,07,Victoria,Australia/Melbourne,+10,-37.89359,145.05534
738,Carlton,AU,Australia,07,Victoria,Australia/Melbourne,+10,-37.80000,144.96667
739,Carlingford,AU,Australia,02,New South Wales,Australia/Sydney,+10,-33.78269,151.04888
740,Capalaba,AU,Australia,04,Queensland,Australia/Brisbane,+10,-27.54333,153.20287
741,Canberra,AU,Australia,01,Australian Capital Territory,Australia/Sydney,+10,-35.28346,149.12807
742,Camberwell,AU,Australia,07,Victoria,Australia/Melbourne,+10,-37.84205,145.06940
743,Cairns,AU,Australia,04,Queensland,Australia/Brisbane,+10,-16.92366,145.76613
744,Caboolture,AU,Australia,04,Queensland,Australia/Brisbane,+10,-27.08465,152.95110
745,Burwood,AU,Australia,02,New South Wales,Australia/Sydney,+10,-33.88333,151.10000
746,Burnie,AU,Australia,06,Tasmania,Australia/Hobart,+10,-41.05584,145.90375
747,Bundaberg,AU,Australia,04,Queensland,Australia/Brisbane,+10,-24.86621,152.34790
748,Buderim,AU,Australia,04,Queensland,Australia/Brisbane,+10,-26.68443,153.05705
749,Brunswick,AU,Australia,07,Victoria,Australia/Melbourne,+10,-37.76667,144.96667
750,Broken Hill,AU,Australia,02,New South Wales,Australia/Broken_Hill,+9,-31.96520,141.45120
751,Brisbane,AU,Australia,04,Queensland,Australia/Brisbane,+10,-27.46794,153.02809
752,Brighton,AU,Australia,07,Victoria,Australia/Melbourne,+10,-37.90561,145.00279
753,Boronia,AU,Australia,07,Victoria,Australia/Melbourne,+10,-37.86667,145.28333
754,Blacktown,AU,Australia,02,New South Wales,Australia/Sydney,+10,-33.76667,150.91667
755,Bexley,AU,Australia,02,New South Wales,Australia/Sydney,+10,-33.95000,151.11667
756,Berwick,AU,Australia,07,Victoria,Australia/Melbourne,+10,-38.03333,145.35000
757,Bentleigh East,AU,Australia,07,Victoria,Australia/Melbourne,+10,-37.91928,145.05301
758,Bentleigh,AU,Australia,07,Victoria,Australia/Melbourne,+10,-37.91806,145.03544
759,Bendigo,AU,Australia,07,Victoria,Australia/Melbourne,+10,-36.75818,144.28024
760,Baulkham Hills,AU,Australia,02,New South Wales,Australia/Sydney,+10,-33.75881,150.99292
761,Bathurst,AU,Australia,02,New South Wales,Australia/Sydney,+10,-33.41665,149.58060
762,Banora Point,AU,Australia,02,New South Wales,Australia/Sydney,+10,-28.21298,153.53634
763,Bankstown,AU,Australia,02,New South Wales,Australia/Sydney,+10,-33.91667,151.03333
764,Ballarat,AU,Australia,07,Victoria,Australia/Melbourne,+10,-37.56622,143.84957
765,Bairnsdale,AU,Australia,07,Victoria,Australia/Melbourne,+10,-37.82289,147.61041
766,Auburn,AU,Australia,02,New South Wales,Australia/Sydney,+10,-33.85000,151.03333
767,Ashfield,AU,Australia,02,New South Wales,Australia/Sydney,+10,-33.88834,151.12274
768,Ascot Vale,AU,Australia,07,Victoria,Australia/Melbourne,+10,-37.77988,144.92276
769,Armidale,AU,Australia,02,New South Wales,Australia/Sydney,+10,-30.50123,151.66553
770,Albany Creek,AU,Australia,04,Queensland,Australia/Brisbane,+10,-27.35364,152.96848
771,Maroochydore,AU,Australia,04,Queensland,Australia/Brisbane,+10,-26.66008,153.09953
772,Cheltenham,AU,Australia,07,Victoria,Australia/Melbourne,+10,-37.96944,145.04806
773,Randwick,AU,Australia,02,New South Wales,Australia/Sydney,+10,-33.91439,151.24895
774,Dee Why,AU,Australia,02,New South Wales,Australia/Sydney,+10,-33.75110,151.28886
775,Umina Beach,AU,Australia,02,New South Wales,Australia/Sydney,+10,-33.52314,151.31325
776,Palmerston,AU,Australia,03,Northern Territory,Australia/Darwin,+9,-12.48602,130.98330
777,Hervey Bay,AU,Australia,04,Queensland,Australia/Brisbane,+10,-25.28762,152.76936
778,Sydney Central Business District,AU,Australia,02,New South Wales,Australia/Sydney,+10,-33.86482,151.20773
779,Kingsford,AU,Australia,02,New South Wales,Australia/Sydney,+10,-33.92399,151.22749
780,Springfield Lakes,AU,Australia,04,Queensland,Australia/Brisbane,+10,-27.66757,152.92488
781,Bracken Ridge,AU,Australia,04,Queensland,Australia/Brisbane,+10,-27.31710,153.03097
782,Kallangur,AU,Australia,04,Queensland,Australia/Brisbane,+10,-27.25204,152.99226
783,North Lakes,AU,Australia,04,Queensland,Australia/Brisbane,+10,-27.22426,153.02075
784,The Gap,AU,Australia,04,Queensland,Australia/Brisbane,+10,-27.44187,152.93861
785,Caroline Springs,AU,Australia,07,Victoria,Australia/Melbourne,+10,-37.74124,144.73631
786,Hoppers Crossing,AU,Australia,07,Victoria,Australia/Melbourne,+10,-37.88264,144.70030
787,Logan City,AU,Australia,04,Queensland,Australia/Brisbane,+10,-27.63917,153.10944
788,Carindale,AU,Australia,04,Queensland,Australia/Brisbane,+10,-27.50578,153.10236
789,Parramatta,AU,Australia,02,New South Wales,Australia/Sydney,+10,-33.81780,151.00348
790,Ferntree Gully,AU,Australia,07,Victoria,Australia/Melbourne,+10,-37.88461,145.29539
791,Adelaide Hills,AU,Australia,05,South Australia,Australia/Adelaide,+9,-34.91119,138.70735
792,Canning Vale,AU,Australia,08,Western Australia,Australia/Perth,+8,-32.05799,115.91814
793,Glenmore Park,AU,Australia,02,New South Wales,Australia/Sydney,+10,-33.79068,150.66930
794,Southbank,AU,Australia,07,Victoria,Australia/Melbourne,+10,-37.82280,144.96434
795,Docklands,AU,Australia,07,Victoria,Australia/Melbourne,+10,-37.81490,144.95052
796,Helensvale,AU,Australia,04,Queensland,Australia/Brisbane,+10,-27.91828,153.33275
797,Elwood,AU,Australia,07,Victoria,Australia/Melbourne,+10,-37.88214,144.98215
798,Balwyn North,AU,Australia,07,Victoria,Australia/Melbourne,+10,-37.79086,145.09386
799,Malvern East,AU,Australia,07,Victoria,Australia/Melbourne,+10,-37.87397,145.04253
800,Brighton East,AU,Australia,07,Victoria,Australia/Melbourne,+10,-37.90232,145.01734
801,Redbank Plains,AU,Australia,04,Queensland,Australia/Brisbane,+10,-27.64613,152.85965
802,Labrador,AU,Australia,04,Queensland,Australia/Brisbane,+10,-27.94402,153.39815
803,St Albans,AU,Australia,07,Victoria,Australia/Melbourne,+10,-37.74496,144.80049
804,Endeavour Hills,AU,Australia,07,Victoria,Australia/Melbourne,+10,-37.97695,145.25866
805,Kellyville,AU,Australia,02,New South Wales,Australia/Sydney,+10,-33.71028,150.95095
806,Taylors Lakes,AU,Australia,07,Victoria,Australia/Melbourne,+10,-37.69863,144.78631
807,Cherrybrook,AU,Australia,02,New South Wales,Australia/Sydney,+10,-33.72197,151.04607
808,Roxburgh Park,AU,Australia,07,Victoria,Australia/Melbourne,+10,-37.62581,144.92555
809,Prestons,AU,Australia,02,New South Wales,Australia/Sydney,+10,-33.94185,150.87170
810,Wyndham Vale,AU,Australia,07,Victoria,Australia/Melbourne,+10,-37.89138,144.62368
811,Ballajura,AU,Australia,08,Western Australia,Australia/Perth,+8,-31.84062,115.89549
812,Willetton,AU,Australia,08,Western Australia,Australia/Perth,+8,-32.05251,115.88782
813,Glenwood,AU,Australia,02,New South Wales,Australia/Sydney,+10,-33.73333,150.93284
814,Cabramatta,AU,Australia,02,New South Wales,Australia/Sydney,+10,-33.89743,150.93446
815,Campsie,AU,Australia,02,New South Wales,Australia/Sydney,+10,-33.91250,151.10279
816,Casula,AU,Australia,02,New South Wales,Australia/Sydney,+10,-33.95222,150.89949
817,Cranebrook,AU,Australia,02,New South Wales,Australia/Sydney,+10,-33.70610,150.70940
818,Greenacre,AU,Australia,02,New South Wales,Australia/Sydney,+10,-33.90034,151.05563
819,Greystanes,AU,Australia,02,New South Wales,Australia/Sydney,+10,-33.82346,150.94607
820,Ellenbrook,AU,Australia,08,Western Australia,Australia/Perth,+8,-31.76737,115.96936
821,Alexandra Hills,AU,Australia,04,Queensland,Australia/Brisbane,+10,-27.53221,153.22889
822,Calamvale,AU,Australia,04,Queensland,Australia/Brisbane,+10,-27.62329,153.04785
823,Yagoona,AU,Australia,02,New South Wales,Australia/Sydney,+10,-33.90490,151.01996
824,Highton,AU,Australia,07,Victoria,Australia/Melbourne,+10,-38.17058,144.31140
825,Pacific Pines,AU,Australia,04,Queensland,Australia/Brisbane,+10,-27.93994,153.31436
826,Robina,AU,Australia,04,Queensland,Australia/Brisbane,+10,-28.07071,153.39329
827,Paralowie,AU,Australia,05,South Australia,Australia/Adelaide,+9,-34.75705,138.60819
828,Baldivis,AU,Australia,08,Western Australia,Australia/Perth,+8,-32.32889,115.83047
829,Dianella,AU,Australia,08,Western Australia,Australia/Perth,+8,-31.88822,115.87186
830,Duncraig,AU,Australia,08,Western Australia,Australia/Perth,+8,-31.83291,115.77590
831,Morley,AU,Australia,08,Western Australia,Australia/Perth,+8,-31.88775,115.90990
832,Thornlie,AU,Australia,08,Western Australia,Australia/Perth,+8,-32.06003,115.95500
833,Landsdale,AU,Australia,08,Western Australia,Australia/Perth,+8,-31.80750,115.86599
834,Punchbowl,AU,Australia,02,New South Wales,Australia/Sydney,+10,-33.92893,151.05111
835,Parafield Gardens,AU,Australia,05,South Australia,Australia/Adelaide,+9,-34.78254,138.61077
836,Hillside,AU,Australia,07,Victoria,Australia/Melbourne,+10,-37.69047,144.74172
837,St Clair,AU,Australia,02,New South Wales,Australia/Sydney,+10,-33.79728,150.78470
838,Kirwan,AU,Australia,04,Queensland,Australia/Brisbane,+10,-19.30323,146.72531
839,Bundoora,AU,Australia,07,Victoria,Australia/Melbourne,+10,-37.69825,145.05967
840,Forest Lake,AU,Australia,04,Queensland,Australia/Brisbane,+10,-27.62563,152.96883
841,Sunnybank Hills,AU,Australia,04,Queensland,Australia/Brisbane,+10,-27.61025,153.05388
842,Rochedale South,AU,Australia,04,Queensland,Australia/Brisbane,+10,-27.59521,153.12332
843,Keilor East,AU,Australia,07,Victoria,Australia/Melbourne,+10,-37.73261,144.86504
844,Cranbourne East,AU,Australia,07,Victoria,Australia/Melbourne,+10,-38.11531,145.29814
845,Cranbourne North,AU,Australia,07,Victoria,Australia/Melbourne,+10,-38.07758,145.29871
846,Cranbourne West,AU,Australia,07,Victoria,Australia/Melbourne,+10,-38.09650,145.26707
847,Narre Warren South,AU,Australia,07,Victoria,Australia/Melbourne,+10,-38.04369,145.29230
848,Dandenong North,AU,Australia,07,Victoria,Australia/Melbourne,+10,-37.96649,145.20810
849,Frankston South,AU,Australia,07,Victoria,Australia/Melbourne,+10,-38.16604,145.13643
850,Sunshine West,AU,Australia,07,Victoria,Australia/Melbourne,+10,-37.79117,144.81637
851,Altona Meadows,AU,Australia,07,Victoria,Australia/Melbourne,+10,-37.88413,144.78367
852,Taylors Hill,AU,Australia,07,Victoria,Australia/Melbourne,+10,-37.70988,144.75483
853,Hurstville,AU,Australia,02,New South Wales,Australia/Sydney,+10,-33.96770,151.10149
854,West Pennant Hills,AU,Australia,02,New South Wales,Australia/Sydney,+10,-33.74570,151.04764
855,City of Port Phillip,AU,Australia,07,Victoria,Australia/Melbourne,+10,-37.83382,144.93834
856,Sunshine Coast,AU,Australia,04,Queensland,Australia/Brisbane,+10,-26.65682,153.07955
857,Melbourne City Centre,AU,Australia,07,Victoria,Australia/Melbourne,+10,-37.81501,144.96657
858,Adelaide city centre,AU,Australia,05,South Australia,Australia/Adelaide,+9,-34.92873,138.60334
859,Wollongong city centre,AU,Australia,02,New South Wales,Australia/Sydney,+10,-34.42790,150.89268
860,Tanki Leendert,AW,Aruba,00,nan,America/Aruba,-4,12.53914,-70.02004
861,San Nicolas,AW,Aruba,00,nan,America/Aruba,-4,12.43624,-69.90713
862,Oranjestad,AW,Aruba,00,nan,America/Aruba,-4,12.52398,-70.02703
863,Noord,AW,Aruba,00,nan,America/Aruba,-4,12.56596,-70.03198
864,Mariehamn,AX,Åland Islands,211,Mariehamns stad,Europe/Mariehamn,+3,60.09726,19.93481
865,Xankandi,AZ,Azerbaijan,61,Xankǝndi,Asia/Baku,+4,39.81770,46.75280
866,Əhmədbəyli,AZ,Azerbaijan,45,Saatlı,Asia/Baku,+4,39.88074,48.39158
867,Şuşa,AZ,Azerbaijan,55,Shusha,Asia/Baku,+4,39.76006,46.74989
868,Salyan,AZ,Azerbaijan,49,Salyan District,Asia/Baku,+4,39.59621,48.98479
869,Saatlı,AZ,Azerbaijan,45,Saatlı,Asia/Baku,+4,39.93214,48.36892
870,Neftçala,AZ,Azerbaijan,36,Neftçala,Asia/Baku,+4,39.37680,49.24700
871,Naxçıvan,AZ,Azerbaijan,35,Nakhichevan ASSR,Asia/Baku,+4,39.20889,45.41222
872,Lerik,AZ,Azerbaijan,31,Lerik District,Asia/Baku,+4,38.77388,48.41497
873,Lankaran,AZ,Azerbaijan,29,Lənkəran,Asia/Baku,+4,38.75428,48.85062
874,Imishli,AZ,Azerbaijan,24,İmişli,Asia/Baku,+4,39.87095,48.05995
875,Fizuli,AZ,Azerbaijan,18,Fuzuli District,Asia/Baku,+4,39.60094,47.14529
876,Jalilabad,AZ,Azerbaijan,15,Jalilabad,Asia/Baku,+4,39.20963,48.49186
877,Pushkino,AZ,Azerbaijan,13,Bilasuvar District,Asia/Baku,+4,39.45833,48.54500
878,Beylagan,AZ,Azerbaijan,12,Beyləqan,Asia/Baku,+4,39.77556,47.61861
879,Astara,AZ,Azerbaijan,08,Astara,Asia/Baku,+4,38.45598,48.87498
880,Şirvan,AZ,Azerbaijan,07,Shirvan,Asia/Baku,+4,39.93778,48.92900
881,Ağdam,AZ,Azerbaijan,03,Ağdam,Asia/Baku,+4,39.99096,46.92736
882,Zaqatala,AZ,Azerbaijan,70,Zaqatala District,Asia/Baku,+4,41.63160,46.64479
883,Zabrat,AZ,Azerbaijan,09,Baki,Asia/Baku,+4,40.47746,49.94174
884,Yevlakh,AZ,Azerbaijan,68,Yevlax City,Asia/Baku,+4,40.61832,47.15014
885,Göygöl,AZ,Azerbaijan,62,Goygol Rayon,Asia/Baku,+4,40.58584,46.31890
886,Xaçmaz,AZ,Azerbaijan,60,Xaçmaz,Asia/Baku,+4,41.46426,48.80565
887,Ujar,AZ,Azerbaijan,59,Ucar,Asia/Baku,+4,40.51902,47.65423
888,Tovuz,AZ,Azerbaijan,58,Tovuz District,Asia/Baku,+4,40.99249,45.62838
889,Terter,AZ,Azerbaijan,57,Tartar District,Asia/Baku,+4,40.34201,46.93161
890,Sumqayıt,AZ,Azerbaijan,54,Sumqayit,Asia/Baku,+4,40.58972,49.66861
891,Qaraçuxur,AZ,Azerbaijan,09,Baki,Asia/Baku,+4,40.39667,49.97361
892,Shamkhor,AZ,Azerbaijan,51,Şǝmkir,Asia/Baku,+4,40.82975,46.01780
893,Shamakhi,AZ,Azerbaijan,50,Şamaxı,Asia/Baku,+4,40.63141,48.64137
894,Sheki,AZ,Azerbaijan,48,Shaki City,Asia/Baku,+4,41.19194,47.17056
895,Sabunçu,AZ,Azerbaijan,09,Baki,Asia/Baku,+4,40.44250,49.94806
896,Sabirabad,AZ,Azerbaijan,46,Sabirabad District,Asia/Baku,+4,40.00869,48.47701
897,Qusar,AZ,Azerbaijan,44,Qusar District,Asia/Baku,+4,41.42750,48.43020
898,Quba,AZ,Azerbaijan,42,Quba,Asia/Baku,+4,41.36108,48.51341
899,Hacıqabul,AZ,Azerbaijan,23,Hacıqabul,Asia/Baku,+4,40.03874,48.94286
900,Qazax,AZ,Azerbaijan,40,Qazax,Asia/Baku,+4,41.09246,45.36561
901,Hacı Zeynalabdin,AZ,Azerbaijan,54,Sumqayit,Asia/Baku,+4,40.62333,49.55861
902,Mingelchaur,AZ,Azerbaijan,33,Mingǝcevir,Asia/Baku,+4,40.76395,47.05953
903,Maştağa,AZ,Azerbaijan,09,Baki,Asia/Baku,+4,40.52983,50.00616
904,Mardakan,AZ,Azerbaijan,09,Baki,Asia/Baku,+4,40.49182,50.14292
905,Lokbatan,AZ,Azerbaijan,09,Baki,Asia/Baku,+4,40.32560,49.73376
906,Kyurdarmir,AZ,Azerbaijan,27,Kurdamir District,Asia/Baku,+4,40.34257,48.15649
907,Khirdalan,AZ,Azerbaijan,01,Abşeron,Asia/Baku,+4,40.44808,49.75502
908,İsmayıllı,AZ,Azerbaijan,25,Ismayilli District,Asia/Baku,+4,40.78485,48.15141
909,Yeni Suraxanı,AZ,Azerbaijan,09,Baki,Asia/Baku,+4,40.43026,50.03598
910,Göyçay,AZ,Azerbaijan,22,Göyçay,Asia/Baku,+4,40.65055,47.74219
911,Hövsan,AZ,Azerbaijan,09,Baki,Asia/Baku,+4,40.37444,50.08528
912,Ganja,AZ,Azerbaijan,20,Gǝncǝ,Asia/Baku,+4,40.68278,46.36056
913,Divichibazar,AZ,Azerbaijan,17,Shabran,Asia/Baku,+4,41.20117,48.98712
914,Buzovna,AZ,Azerbaijan,09,Baki,Asia/Baku,+4,40.51903,50.11438
915,Biny Selo,AZ,Azerbaijan,09,Baki,Asia/Baku,+4,40.45076,50.08686
916,Barda,AZ,Azerbaijan,11,Barda,Asia/Baku,+4,40.37577,47.12619
917,Bilajari,AZ,Azerbaijan,09,Baki,Asia/Baku,+4,40.44440,49.80566
918,Baku,AZ,Azerbaijan,09,Baki,Asia/Baku,+4,40.37767,49.89201
919,Amirdzhan,AZ,Azerbaijan,09,Baki,Asia/Baku,+4,40.42639,49.98361
920,Aghsu,AZ,Azerbaijan,06,Agsu District,Asia/Baku,+4,40.57028,48.40087
921,Ağdaş,AZ,Azerbaijan,04,Ağdaş,Asia/Baku,+4,40.64699,47.47380
922,Agdzhabedy,AZ,Azerbaijan,02,Ağcabǝdi,Asia/Baku,+4,40.05015,47.45937
923,Bakıxanov,AZ,Azerbaijan,09,Baki,Asia/Baku,+4,40.41894,49.96693
924,Zenica,BA,Bosnia and Herzegovina,01,Federation of B&H,Europe/Sarajevo,+2,44.20169,17.90397
925,Visoko,BA,Bosnia and Herzegovina,01,Federation of B&H,Europe/Sarajevo,+2,43.98889,18.17806
926,Velika Kladuša,BA,Bosnia and Herzegovina,01,Federation of B&H,Europe/Sarajevo,+2,45.18497,15.80579
927,Tuzla,BA,Bosnia and Herzegovina,01,Federation of B&H,Europe/Sarajevo,+2,44.53842,18.66709
928,Trebinje,BA,Bosnia and Herzegovina,02,Srpska,Europe/Sarajevo,+2,42.71197,18.34362
929,Travnik,BA,Bosnia and Herzegovina,01,Federation of B&H,Europe/Sarajevo,+2,44.22637,17.66583
930,Sarajevo,BA,Bosnia and Herzegovina,01,Federation of B&H,Europe/Sarajevo,+2,43.84864,18.35644
931,Prijedor,BA,Bosnia and Herzegovina,02,Srpska,Europe/Sarajevo,+2,44.97991,16.71401
932,Mostar,BA,Bosnia and Herzegovina,01,Federation of B&H,Europe/Sarajevo,+2,43.34333,17.80806
933,Lukavac,BA,Bosnia and Herzegovina,01,Federation of B&H,Europe/Sarajevo,+2,44.54245,18.52618
934,Ilidža,BA,Bosnia and Herzegovina,01,Federation of B&H,Europe/Sarajevo,+2,43.83148,18.30697
935,Gradačac,BA,Bosnia and Herzegovina,01,Federation of B&H,Europe/Sarajevo,+2,44.87851,18.42764
936,Gračanica,BA,Bosnia and Herzegovina,01,Federation of B&H,Europe/Sarajevo,+2,44.70307,18.31010
937,Goražde,BA,Bosnia and Herzegovina,01,Federation of B&H,Europe/Sarajevo,+2,43.66795,18.97564
938,Doboj,BA,Bosnia and Herzegovina,02,Srpska,Europe/Sarajevo,+2,44.73179,18.08698
939,Cazin,BA,Bosnia and Herzegovina,01,Federation of B&H,Europe/Sarajevo,+2,44.96694,15.94306
940,Bugojno,BA,Bosnia and Herzegovina,01,Federation of B&H,Europe/Sarajevo,+2,44.05722,17.45083
941,Brčko,BA,Bosnia and Herzegovina,BRC,Brčko,Europe/Sarajevo,+2,44.86995,18.81012
942,Bosanska Krupa,BA,Bosnia and Herzegovina,01,Federation of B&H,Europe/Sarajevo,+2,44.88250,16.15139
943,Bijeljina,BA,Bosnia and Herzegovina,02,Srpska,Europe/Sarajevo,+2,44.75874,19.21437
944,Bihać,BA,Bosnia and Herzegovina,01,Federation of B&H,Europe/Sarajevo,+2,44.81694,15.87083
945,Banja Luka,BA,Bosnia and Herzegovina,02,Srpska,Europe/Sarajevo,+2,44.77842,17.19386
946,Konjic,BA,Bosnia and Herzegovina,01,Federation of B&H,Europe/Sarajevo,+2,43.65126,17.96082
947,Bridgetown,BB,Barbados,08,Saint Michael,America/Barbados,-4,13.10732,-59.62021
948,Thākurgaon,BD,Bangladesh,87,Rangpur Division,Asia/Dhaka,+6,26.03097,88.46989
949,Teknāf,BD,Bangladesh,84,Chittagong,Asia/Dhaka,+6,20.85829,92.29773
950,Tungi,BD,Bangladesh,81,Dhaka Division,Asia/Dhaka,+6,23.89154,90.40232
951,Sylhet,BD,Bangladesh,86,Sylhet Division,Asia/Dhaka,+6,24.89904,91.87198
952,Dohār,BD,Bangladesh,81,Dhaka Division,Asia/Dhaka,+6,23.59311,90.14251
953,Sunāmganj,BD,Bangladesh,86,Sylhet Division,Asia/Dhaka,+6,25.06889,91.40243
954,Jamālpur,BD,Bangladesh,H,Mymensingh Division,Asia/Dhaka,+6,24.91965,89.94812
955,Shibganj,BD,Bangladesh,83,Rajshahi Division,Asia/Dhaka,+6,25.00146,89.32266
956,Shibganj,BD,Bangladesh,83,Rajshahi Division,Asia/Dhaka,+6,24.68501,88.15638
957,Sātkhira,BD,Bangladesh,82,Khulna Division,Asia/Dhaka,+6,22.70817,89.07185
958,Sirajganj,BD,Bangladesh,83,Rajshahi Division,Asia/Dhaka,+6,24.45771,89.70802
959,Netrakona,BD,Bangladesh,H,Mymensingh Division,Asia/Dhaka,+6,24.88352,90.72898
960,Narsingdi,BD,Bangladesh,81,Dhaka Division,Asia/Dhaka,+6,23.92298,90.71768
961,Sandwīp,BD,Bangladesh,84,Chittagong,Asia/Dhaka,+6,22.51409,91.45491
962,Shāhzādpur,BD,Bangladesh,83,Rajshahi Division,Asia/Dhaka,+6,24.17687,89.59880
963,Rāmganj,BD,Bangladesh,84,Chittagong,Asia/Dhaka,+6,23.10060,90.84989
964,Rajshahi,BD,Bangladesh,83,Rajshahi Division,Asia/Dhaka,+6,24.37400,88.60114
965,Pirojpur,BD,Bangladesh,85,Barisal Division,Asia/Dhaka,+6,22.57965,89.97521
966,Panchagarh,BD,Bangladesh,87,Rangpur Division,Asia/Dhaka,+6,26.33338,88.55777
967,Patiya,BD,Bangladesh,84,Chittagong,Asia/Dhaka,+6,22.29543,91.97900
968,Parbatipur,BD,Bangladesh,87,Rangpur Division,Asia/Dhaka,+6,25.66369,88.93093
969,Nārāyanganj,BD,Bangladesh,81,Dhaka Division,Asia/Dhaka,+6,23.61352,90.50298
970,Nālchiti,BD,Bangladesh,85,Barisal Division,Asia/Dhaka,+6,22.63696,90.27195
971,Nāgarpur,BD,Bangladesh,81,Dhaka Division,Asia/Dhaka,+6,24.05783,89.87696
972,Nageswari,BD,Bangladesh,87,Rangpur Division,Asia/Dhaka,+6,25.96817,89.69153
973,Mymensingh,BD,Bangladesh,H,Mymensingh Division,Asia/Dhaka,+6,24.75636,90.40646
974,Muktāgācha,BD,Bangladesh,H,Mymensingh Division,Asia/Dhaka,+6,24.76484,90.25698
975,Mirzāpur,BD,Bangladesh,81,Dhaka Division,Asia/Dhaka,+6,24.10287,90.09841
976,Maulavi Bāzār,BD,Bangladesh,86,Sylhet Division,Asia/Dhaka,+6,24.48888,91.77075
977,Morrelgonj,BD,Bangladesh,82,Khulna Division,Asia/Dhaka,+6,22.45566,89.85584
978,Mehendiganj,BD,Bangladesh,85,Barisal Division,Asia/Dhaka,+6,22.82257,90.52859
979,Mathba,BD,Bangladesh,85,Barisal Division,Asia/Dhaka,+6,22.28616,89.95883
980,Lalmonirhat,BD,Bangladesh,87,Rangpur Division,Asia/Dhaka,+6,25.91719,89.44595
981,Lākshām,BD,Bangladesh,84,Chittagong,Asia/Dhaka,+6,23.24018,91.12143
982,Comilla,BD,Bangladesh,84,Chittagong,Asia/Dhaka,+6,23.46186,91.18503
983,Rangpur,BD,Bangladesh,87,Rangpur Division,Asia/Dhaka,+6,25.74664,89.25166
984,Kushtia,BD,Bangladesh,82,Khulna Division,Asia/Dhaka,+6,23.90280,89.11943
985,Kālīganj,BD,Bangladesh,82,Khulna Division,Asia/Dhaka,+6,23.40964,89.13801
986,Jhingergācha,BD,Bangladesh,82,Khulna Division,Asia/Dhaka,+6,23.11134,89.09061
987,Joypur Hāt,BD,Bangladesh,83,Rajshahi Division,Asia/Dhaka,+6,25.10147,89.02734
988,Ishwardi,BD,Bangladesh,83,Rajshahi Division,Asia/Dhaka,+6,24.12858,89.06573
989,Habiganj,BD,Bangladesh,86,Sylhet Division,Asia/Dhaka,+6,24.38044,91.41299
990,Gaurnadi,BD,Bangladesh,85,Barisal Division,Asia/Dhaka,+6,22.97372,90.22376
991,Gafargaon,BD,Bangladesh,H,Mymensingh Division,Asia/Dhaka,+6,24.43200,90.55850
992,Feni,BD,Bangladesh,84,Chittagong,Asia/Dhaka,+6,23.01440,91.39660
993,Rāipur,BD,Bangladesh,84,Chittagong,Asia/Dhaka,+6,23.03910,90.76808
994,Sarankhola,BD,Bangladesh,82,Khulna Division,Asia/Dhaka,+6,22.31006,89.79113
995,Ramna Maidan,BD,Bangladesh,81,Dhaka Division,Asia/Dhaka,+6,23.73333,90.40000
996,Dhaka,BD,Bangladesh,81,Dhaka Division,Asia/Dhaka,+6,23.71040,90.40744
997,Chilmāri,BD,Bangladesh,87,Rangpur Division,Asia/Dhaka,+6,25.55613,89.67097
998,Chhāgalnāiya,BD,Bangladesh,84,Chittagong,Asia/Dhaka,+6,23.02475,91.51091
999,Lālmohan,BD,Bangladesh,85,Barisal Division,Asia/Dhaka,+6,22.33774,90.73708
1000,Khagrachhari,BD,Bangladesh,84,Chittagong,Asia/Dhaka,+6,23.10787,91.97007
1001,Chhātak,BD,Bangladesh,86,Sylhet Division,Asia/Dhaka,+6,25.03852,91.66958
1002,Bhātpāra Abhaynagar,BD,Bangladesh,82,Khulna Division,Asia/Dhaka,+6,23.01472,89.43936
1003,Bherāmāra,BD,Bangladesh,82,Khulna Division,Asia/Dhaka,+6,24.02452,88.99234
1004,Bhairab Bāzār,BD,Bangladesh,81,Dhaka Division,Asia/Dhaka,+6,24.05240,90.97640
1005,Bāndarban,BD,Bangladesh,84,Chittagong,Asia/Dhaka,+6,22.19534,92.21946
1006,Kālia,BD,Bangladesh,82,Khulna Division,Asia/Dhaka,+6,23.04300,89.63094
1007,Baniachang,BD,Bangladesh,86,Sylhet Division,Asia/Dhaka,+6,24.51863,91.35787
1008,Bājitpur,BD,Bangladesh,81,Dhaka Division,Asia/Dhaka,+6,24.21623,90.95002
1009,Bagerhat,BD,Bangladesh,82,Khulna Division,Asia/Dhaka,+6,22.65657,89.79123
1010,Badarganj,BD,Bangladesh,87,Rangpur Division,Asia/Dhaka,+6,25.67419,89.05377
1011,Narail,BD,Bangladesh,82,Khulna Division,Asia/Dhaka,+6,23.15509,89.49515
1012,Tungipāra,BD,Bangladesh,81,Dhaka Division,Asia/Dhaka,+6,22.89983,89.90326
1013,Sonārgaon,BD,Bangladesh,81,Dhaka Division,Asia/Dhaka,+6,23.65000,90.61667
1014,Shāhbāzpur Town,BD,Bangladesh,84,Chittagong,Asia/Dhaka,+6,24.05296,91.17193
1615,Tamboril,BR,Brazil,06,Ceará,America/Fortaleza,-3,-4.83222,-40.32056
1015,Sarishābāri,BD,Bangladesh,H,Mymensingh Division,Asia/Dhaka,+6,24.75127,89.83126
1016,Sakhipur,BD,Bangladesh,81,Dhaka Division,Asia/Dhaka,+6,24.31988,90.16943
1017,Raojān,BD,Bangladesh,84,Chittagong,Asia/Dhaka,+6,22.53511,91.91919
1018,Phultala,BD,Bangladesh,82,Khulna Division,Asia/Dhaka,+6,22.71673,89.51194
1019,Pālang,BD,Bangladesh,81,Dhaka Division,Asia/Dhaka,+6,23.21824,90.35076
1020,Pār Naogaon,BD,Bangladesh,83,Rajshahi Division,Asia/Dhaka,+6,24.80418,88.94875
1021,Nagar Naluākot,BD,Bangladesh,81,Dhaka Division,Asia/Dhaka,+6,24.15608,90.77280
1022,Nabīnagar,BD,Bangladesh,84,Chittagong,Asia/Dhaka,+6,23.88791,90.96792
1023,Mohāmmadpur,BD,Bangladesh,83,Rajshahi Division,Asia/Dhaka,+6,24.89843,88.52844
1024,Mātuail,BD,Bangladesh,81,Dhaka Division,Asia/Dhaka,+6,23.71211,90.45983
1025,Maijdi,BD,Bangladesh,84,Chittagong,Asia/Dhaka,+6,22.86667,91.10000
1026,Lakshmīpur,BD,Bangladesh,84,Chittagong,Asia/Dhaka,+6,22.94430,90.83005
1027,Kesabpur,BD,Bangladesh,82,Khulna Division,Asia/Dhaka,+6,22.90725,89.21954
1028,Kāfrul,BD,Bangladesh,81,Dhaka Division,Asia/Dhaka,+6,23.78822,90.37359
1029,Gazipur,BD,Bangladesh,81,Dhaka Division,Asia/Dhaka,+6,23.99844,90.42234
1030,Hājīganj,BD,Bangladesh,84,Chittagong,Asia/Dhaka,+6,23.25191,90.85508
1031,Gopālganj,BD,Bangladesh,81,Dhaka Division,Asia/Dhaka,+6,23.22348,90.06041
1032,Farīdpur,BD,Bangladesh,81,Dhaka Division,Asia/Dhaka,+6,23.60612,89.84064
1033,Dukuria,BD,Bangladesh,81,Dhaka Division,Asia/Dhaka,+6,23.71095,90.37414
1034,Dohazāri,BD,Bangladesh,84,Chittagong,Asia/Dhaka,+6,22.16385,92.07333
1035,Dinajpur,BD,Bangladesh,87,Rangpur Division,Asia/Dhaka,+6,25.62745,88.63779
1036,Uttar Char Fasson,BD,Bangladesh,82,Khulna Division,Asia/Dhaka,+6,22.22647,90.71275
1037,Chattogram,BD,Bangladesh,84,Chittagong,Asia/Dhaka,+6,22.33840,91.83168
1038,Char Bhadrāsan,BD,Bangladesh,81,Dhaka Division,Asia/Dhaka,+6,23.30916,90.22698
1039,Chāndpur,BD,Bangladesh,84,Chittagong,Asia/Dhaka,+6,23.22714,90.65433
1040,Bhātāra,BD,Bangladesh,81,Dhaka Division,Asia/Dhaka,+6,23.80000,90.45000
1041,Bera,BD,Bangladesh,83,Rajshahi Division,Asia/Dhaka,+6,24.07821,89.63262
1042,Burhānuddin,BD,Bangladesh,85,Barisal Division,Asia/Dhaka,+6,22.49518,90.72391
1043,Āshuganj City,BD,Bangladesh,84,Chittagong,Asia/Dhaka,+6,24.04016,91.01170
1044,Sātkania,BD,Bangladesh,84,Chittagong,Asia/Dhaka,+6,22.07639,92.04955
1045,Cox’s Bāzār,BD,Bangladesh,84,Chittagong,Asia/Dhaka,+6,21.43973,92.00955
1046,Khulna,BD,Bangladesh,82,Khulna Division,Asia/Dhaka,+6,22.80979,89.56439
1047,Bhola,BD,Bangladesh,85,Barisal Division,Asia/Dhaka,+6,22.68759,90.64403
1048,Barishal,BD,Bangladesh,85,Barisal Division,Asia/Dhaka,+6,22.70497,90.37013
1049,Rāngāmāti,BD,Bangladesh,84,Chittagong,Asia/Dhaka,+6,22.64317,92.19186
1050,Jessore,BD,Bangladesh,82,Khulna Division,Asia/Dhaka,+6,23.16971,89.21371
1051,Brāhmanbāria,BD,Bangladesh,84,Chittagong,Asia/Dhaka,+6,23.97464,91.11228
1052,Pābna,BD,Bangladesh,83,Rajshahi Division,Asia/Dhaka,+6,24.00644,89.23720
1053,Tāngāil,BD,Bangladesh,81,Dhaka Division,Asia/Dhaka,+6,24.24984,89.91655
1054,Bogra,BD,Bangladesh,83,Rajshahi Division,Asia/Dhaka,+6,24.85098,89.37108
1055,Pīrgaaj,BD,Bangladesh,87,Rangpur Division,Asia/Dhaka,+6,25.85587,88.35943
1056,Nawābganj,BD,Bangladesh,83,Rajshahi Division,Asia/Dhaka,+6,24.59025,88.27444
1057,Madaripur,BD,Bangladesh,81,Dhaka Division,Asia/Dhaka,+6,23.17097,90.20935
1058,Sherpur,BD,Bangladesh,H,Mymensingh Division,Asia/Dhaka,+6,25.01881,90.01751
1059,Kishorganj,BD,Bangladesh,81,Dhaka Division,Asia/Dhaka,+6,24.43944,90.78291
1060,Mānikganj,BD,Bangladesh,81,Dhaka Division,Asia/Dhaka,+6,23.85768,90.00957
1061,Savar,BD,Bangladesh,81,Dhaka Division,Asia/Dhaka,+6,23.84858,90.25002
1062,Hāthazāri,BD,Bangladesh,84,Chittagong,Asia/Dhaka,+6,22.50515,91.81339
1063,Manikchari,BD,Bangladesh,84,Chittagong,Asia/Dhaka,+6,22.83957,91.84128
1064,Bhāndāria,BD,Bangladesh,85,Barisal Division,Asia/Dhaka,+6,22.48898,90.06273
1065,Bibir Hat,BD,Bangladesh,84,Chittagong,Asia/Dhaka,+6,22.68347,91.79058
1066,Saidpur,BD,Bangladesh,87,Rangpur Division,Asia/Dhaka,+6,25.77769,88.89169
1067,Puthia,BD,Bangladesh,83,Rajshahi Division,Asia/Dhaka,+6,24.36537,88.83431
1068,Natore,BD,Bangladesh,83,Rajshahi Division,Asia/Dhaka,+6,24.41112,88.98673
1069,Patuakhali,BD,Bangladesh,85,Barisal Division,Asia/Dhaka,+6,22.36833,90.34580
1070,Dhanmondi,BD,Bangladesh,81,Dhaka Division,Asia/Dhaka,+6,23.74000,90.38500
1071,Pallabi,BD,Bangladesh,81,Dhaka Division,Asia/Dhaka,+6,23.82500,90.37000
1072,Azimpur,BD,Bangladesh,81,Dhaka Division,Asia/Dhaka,+6,23.72980,90.38540
1073,Paotana Hat,BD,Bangladesh,87,Rangpur Division,Asia/Dhaka,+6,25.66473,89.50260
1074,Karnaphuli,BD,Bangladesh,84,Chittagong,Asia/Dhaka,+6,22.69056,92.23472
1075,Bhanga,BD,Bangladesh,81,Dhaka Division,Asia/Dhaka,+6,23.39194,89.98389
1076,Paltan,BD,Bangladesh,81,Dhaka Division,Asia/Dhaka,+6,23.73625,90.41426
1077,Mirpur Model Thana,BD,Bangladesh,81,Dhaka Division,Asia/Dhaka,+6,23.80931,90.36093
1078,Zwijndrecht,BE,Belgium,VLG,Flanders,Europe/Brussels,+2,51.21979,4.32664
1079,Zwevegem,BE,Belgium,VLG,Flanders,Europe/Brussels,+2,50.81268,3.33848
1080,Zottegem,BE,Belgium,VLG,Flanders,Europe/Brussels,+2,50.86955,3.81052
1081,Zonhoven,BE,Belgium,VLG,Flanders,Europe/Brussels,+2,50.99064,5.36819
1082,Zolder,BE,Belgium,VLG,Flanders,Europe/Brussels,+2,51.02455,5.30983
1083,Zemst,BE,Belgium,VLG,Flanders,Europe/Brussels,+2,50.98318,4.46079
1084,Zele,BE,Belgium,VLG,Flanders,Europe/Brussels,+2,51.06566,4.04030
1085,Zedelgem,BE,Belgium,VLG,Flanders,Europe/Brussels,+2,51.14236,3.13680
1086,Zaventem,BE,Belgium,VLG,Flanders,Europe/Brussels,+2,50.88365,4.47298
1087,Wondelgem,BE,Belgium,VLG,Flanders,Europe/Brussels,+2,51.08705,3.70909
1088,Woluwe-Saint-Lambert,BE,Belgium,BRU,Brussels Capital,Europe/Brussels,+2,50.84389,4.42912
1089,Wilrijk,BE,Belgium,VLG,Flanders,Europe/Brussels,+2,51.16734,4.39513
1090,Willebroek,BE,Belgium,VLG,Flanders,Europe/Brussels,+2,51.06041,4.36019
1091,Wevelgem,BE,Belgium,VLG,Flanders,Europe/Brussels,+2,50.80000,3.16667
1092,Wetteren,BE,Belgium,VLG,Flanders,Europe/Brussels,+2,51.00526,3.88341
1093,Westerlo,BE,Belgium,VLG,Flanders,Europe/Brussels,+2,51.09049,4.91544
1094,Wervik,BE,Belgium,VLG,Flanders,Europe/Brussels,+2,50.78069,3.03854
1095,Wavre,BE,Belgium,WAL,Wallonia,Europe/Brussels,+2,50.71717,4.60138
1096,Watermael-Boitsfort,BE,Belgium,BRU,Brussels Capital,Europe/Brussels,+2,50.80154,4.41436
1097,Waterloo,BE,Belgium,WAL,Wallonia,Europe/Brussels,+2,50.71469,4.39910
1098,Waregem,BE,Belgium,VLG,Flanders,Europe/Brussels,+2,50.88898,3.42756
1099,Walcourt,BE,Belgium,WAL,Wallonia,Europe/Brussels,+2,50.25401,4.43796
1100,Visé,BE,Belgium,WAL,Wallonia,Europe/Brussels,+2,50.73760,5.69907
1101,Vilvoorde,BE,Belgium,VLG,Flanders,Europe/Brussels,+2,50.92814,4.42938
1102,Verviers,BE,Belgium,WAL,Wallonia,Europe/Brussels,+2,50.58907,5.86241
1103,Uccle,BE,Belgium,BRU,Brussels Capital,Europe/Brussels,+2,50.80225,4.33943
1104,Turnhout,BE,Belgium,VLG,Flanders,Europe/Brussels,+2,51.32254,4.94471
1105,Tubize,BE,Belgium,WAL,Wallonia,Europe/Brussels,+2,50.69059,4.20090
1106,Tournai,BE,Belgium,WAL,Wallonia,Europe/Brussels,+2,50.60715,3.38932
1107,Torhout,BE,Belgium,VLG,Flanders,Europe/Brussels,+2,51.06560,3.10085
1108,Tongeren,BE,Belgium,VLG,Flanders,Europe/Brussels,+2,50.78054,5.46484
1109,Tienen,BE,Belgium,VLG,Flanders,Europe/Brussels,+2,50.80745,4.93780
1110,Tielt,BE,Belgium,VLG,Flanders,Europe/Brussels,+2,50.99931,3.32707
1111,Tessenderlo,BE,Belgium,VLG,Flanders,Europe/Brussels,+2,51.06513,5.08856
1112,Tervuren,BE,Belgium,VLG,Flanders,Europe/Brussels,+2,50.82372,4.51418
1113,Temse,BE,Belgium,VLG,Flanders,Europe/Brussels,+2,51.12794,4.21372
1114,Stekene,BE,Belgium,VLG,Flanders,Europe/Brussels,+2,51.20990,4.03651
1115,Stabroek,BE,Belgium,VLG,Flanders,Europe/Brussels,+2,51.33189,4.37127
1116,Soumagne,BE,Belgium,WAL,Wallonia,Europe/Brussels,+2,50.61385,5.74679
1117,Soignies,BE,Belgium,WAL,Wallonia,Europe/Brussels,+2,50.57904,4.07129
1118,Sint-Truiden,BE,Belgium,VLG,Flanders,Europe/Brussels,+2,50.81679,5.18647
1119,Sint-Pieters-Leeuw,BE,Belgium,VLG,Flanders,Europe/Brussels,+2,50.77926,4.24355
1120,Sint-Niklaas,BE,Belgium,VLG,Flanders,Europe/Brussels,+2,51.16509,4.14370
1121,Sint-Kruis,BE,Belgium,VLG,Flanders,Europe/Brussels,+2,51.21399,3.24949
1122,Sint-Katelijne-Waver,BE,Belgium,VLG,Flanders,Europe/Brussels,+2,51.06691,4.53469
1123,Sint-Gillis-Waas,BE,Belgium,VLG,Flanders,Europe/Brussels,+2,51.21914,4.12374
1124,Sint-Genesius-Rode,BE,Belgium,VLG,Flanders,Europe/Brussels,+2,50.74645,4.35754
1125,Sint-Andries,BE,Belgium,VLG,Flanders,Europe/Brussels,+2,51.19696,3.17891
1126,Sint-Amandsberg,BE,Belgium,VLG,Flanders,Europe/Brussels,+2,51.05947,3.74943
1127,Seraing,BE,Belgium,WAL,Wallonia,Europe/Brussels,+2,50.58362,5.50115
1128,Schoten,BE,Belgium,VLG,Flanders,Europe/Brussels,+2,51.25251,4.50268
1129,Schilde,BE,Belgium,VLG,Flanders,Europe/Brussels,+2,51.24107,4.58336
1130,Schaerbeek,BE,Belgium,BRU,Brussels Capital,Europe/Brussels,+2,50.86935,4.37737
1131,Saint-Nicolas,BE,Belgium,WAL,Wallonia,Europe/Brussels,+2,50.62837,5.53243
1132,Saint-Josse-ten-Noode,BE,Belgium,BRU,Brussels Capital,Europe/Brussels,+2,50.85380,4.37282
1133,Saint-Gilles,BE,Belgium,BRU,Brussels Capital,Europe/Brussels,+2,50.82763,4.34389
1134,Saint-Ghislain,BE,Belgium,WAL,Wallonia,Europe/Brussels,+2,50.44816,3.81886
1135,Rotselaar,BE,Belgium,VLG,Flanders,Europe/Brussels,+2,50.95302,4.71665
1136,Ronse,BE,Belgium,VLG,Flanders,Europe/Brussels,+2,50.74574,3.60050
1137,Roeselare,BE,Belgium,VLG,Flanders,Europe/Brussels,+2,50.94653,3.12269
1138,Rixensart,BE,Belgium,WAL,Wallonia,Europe/Brussels,+2,50.71229,4.52529
1139,Riemst,BE,Belgium,VLG,Flanders,Europe/Brussels,+2,50.80995,5.60131
1140,Ranst,BE,Belgium,VLG,Flanders,Europe/Brussels,+2,51.18983,4.56533
1141,Quaregnon,BE,Belgium,WAL,Wallonia,Europe/Brussels,+2,50.44067,3.86530
1142,Puurs,BE,Belgium,VLG,Flanders,Europe/Brussels,+2,51.07409,4.28844
1143,Putte,BE,Belgium,VLG,Flanders,Europe/Brussels,+2,51.05337,4.63263
1144,Poperinge,BE,Belgium,VLG,Flanders,Europe/Brussels,+2,50.85386,2.72659
1145,Pont-à-Celles,BE,Belgium,WAL,Wallonia,Europe/Brussels,+2,50.50518,4.36887
1146,Péruwelz,BE,Belgium,WAL,Wallonia,Europe/Brussels,+2,50.50819,3.59373
1147,Peer,BE,Belgium,VLG,Flanders,Europe/Brussels,+2,51.13030,5.45952
1148,Overijse,BE,Belgium,VLG,Flanders,Europe/Brussels,+2,50.77436,4.53461
1149,Oupeye,BE,Belgium,WAL,Wallonia,Europe/Brussels,+2,50.71184,5.64680
1150,Oudenaarde,BE,Belgium,VLG,Flanders,Europe/Brussels,+2,50.85168,3.60891
1151,Oostkamp,BE,Belgium,VLG,Flanders,Europe/Brussels,+2,51.15432,3.23128
1152,Ostend,BE,Belgium,VLG,Flanders,Europe/Brussels,+2,51.21551,2.92700
1153,Nivelles,BE,Belgium,WAL,Wallonia,Europe/Brussels,+2,50.59833,4.32848
1154,Ninove,BE,Belgium,VLG,Flanders,Europe/Brussels,+2,50.82776,4.02657
1155,Nijlen,BE,Belgium,VLG,Flanders,Europe/Brussels,+2,51.16096,4.67008
1156,Neerpelt,BE,Belgium,VLG,Flanders,Europe/Brussels,+2,51.22807,5.44270
1157,Namur,BE,Belgium,WAL,Wallonia,Europe/Brussels,+2,50.46690,4.86746
1158,Mouscron,BE,Belgium,WAL,Wallonia,Europe/Brussels,+2,50.74497,3.20639
1159,Mortsel,BE,Belgium,VLG,Flanders,Europe/Brussels,+2,51.16697,4.45127
1160,Morlanwelz-Mariemont,BE,Belgium,WAL,Wallonia,Europe/Brussels,+2,50.45502,4.24519
1161,Montignies-sur-Sambre,BE,Belgium,WAL,Wallonia,Europe/Brussels,+2,50.41081,4.49109
1162,Mons,BE,Belgium,WAL,Wallonia,Europe/Brussels,+2,50.45413,3.95229
1163,Molenbeek-Saint-Jean,BE,Belgium,BRU,Brussels Capital,Europe/Brussels,+2,50.84990,4.31248
1164,Mol,BE,Belgium,VLG,Flanders,Europe/Brussels,+2,51.19188,5.11662
1165,Middelkerke,BE,Belgium,VLG,Flanders,Europe/Brussels,+2,51.18532,2.82077
1166,Merksem,BE,Belgium,VLG,Flanders,Europe/Brussels,+2,51.24623,4.44903
1167,Merelbeke,BE,Belgium,VLG,Flanders,Europe/Brussels,+2,50.99447,3.74621
1168,Menen,BE,Belgium,VLG,Flanders,Europe/Brussels,+2,50.79722,3.12245
1169,Meise,BE,Belgium,VLG,Flanders,Europe/Brussels,+2,50.93934,4.32655
1170,Mechelen-aan-de-Maas,BE,Belgium,VLG,Flanders,Europe/Brussels,+2,50.96589,5.69144
1171,Mechelen,BE,Belgium,VLG,Flanders,Europe/Brussels,+2,51.02574,4.47762
1172,Mariakerke,BE,Belgium,VLG,Flanders,Europe/Brussels,+2,51.07476,3.68289
1173,Marcinelle,BE,Belgium,WAL,Wallonia,Europe/Brussels,+2,50.39216,4.44388
1174,Marchienne-au-Pont,BE,Belgium,WAL,Wallonia,Europe/Brussels,+2,50.40573,4.39530
1175,Marche-en-Famenne,BE,Belgium,WAL,Wallonia,Europe/Brussels,+2,50.22678,5.34416
1176,Manage,BE,Belgium,WAL,Wallonia,Europe/Brussels,+2,50.50312,4.23589
1177,Maldegem,BE,Belgium,VLG,Flanders,Europe/Brussels,+2,51.20737,3.44511
1178,Maasmechelen,BE,Belgium,VLG,Flanders,Europe/Brussels,+2,50.96545,5.69452
1179,Maaseik,BE,Belgium,VLG,Flanders,Europe/Brussels,+2,51.09802,5.78379
1180,Louvain-la-Neuve,BE,Belgium,WAL,Wallonia,Europe/Brussels,+2,50.66829,4.61443
1181,Lommel,BE,Belgium,VLG,Flanders,Europe/Brussels,+2,51.23074,5.31349
1182,Lokeren,BE,Belgium,VLG,Flanders,Europe/Brussels,+2,51.10364,3.99339
1183,Lochristi,BE,Belgium,VLG,Flanders,Europe/Brussels,+2,51.09644,3.83194
1184,Lille,BE,Belgium,VLG,Flanders,Europe/Brussels,+2,51.24197,4.82313
1185,Lier,BE,Belgium,VLG,Flanders,Europe/Brussels,+2,51.13128,4.57041
1186,Liège,BE,Belgium,WAL,Wallonia,Europe/Brussels,+2,50.63373,5.56749
1187,Leuven,BE,Belgium,VLG,Flanders,Europe/Brussels,+2,50.87959,4.70093
1188,Lessines,BE,Belgium,WAL,Wallonia,Europe/Brussels,+2,50.71104,3.83579
1189,Lede,BE,Belgium,VLG,Flanders,Europe/Brussels,+2,50.96626,3.98594
1190,Lebbeke,BE,Belgium,VLG,Flanders,Europe/Brussels,+2,51.00464,4.13457
1191,Lanaken,BE,Belgium,VLG,Flanders,Europe/Brussels,+2,50.89318,5.64680
1192,La Louvière,BE,Belgium,WAL,Wallonia,Europe/Brussels,+2,50.48657,4.18785
1193,Kortrijk,BE,Belgium,VLG,Flanders,Europe/Brussels,+2,50.82803,3.26487
1194,Kortenberg,BE,Belgium,VLG,Flanders,Europe/Brussels,+2,50.88982,4.54353
1195,Kontich,BE,Belgium,VLG,Flanders,Europe/Brussels,+2,51.13213,4.44706
1196,Koksijde,BE,Belgium,VLG,Flanders,Europe/Brussels,+2,51.11642,2.63772
1197,Koersel,BE,Belgium,VLG,Flanders,Europe/Brussels,+2,51.05909,5.27121
1198,Koekelberg,BE,Belgium,BRU,Brussels Capital,Europe/Brussels,+2,50.86117,4.33136
1199,Knokke-Heist,BE,Belgium,VLG,Flanders,Europe/Brussels,+2,51.35000,3.26667
1200,Kessel-Lo,BE,Belgium,VLG,Flanders,Europe/Brussels,+2,50.88549,4.73717
1201,Kasterlee,BE,Belgium,VLG,Flanders,Europe/Brussels,+2,51.24118,4.96651
1202,Kapellen,BE,Belgium,VLG,Flanders,Europe/Brussels,+2,51.31377,4.43539
1203,Kalmthout,BE,Belgium,VLG,Flanders,Europe/Brussels,+2,51.38442,4.47556
1204,Jumet,BE,Belgium,WAL,Wallonia,Europe/Brussels,+2,50.44220,4.43745
1205,Jette,BE,Belgium,BRU,Brussels Capital,Europe/Brussels,+2,50.87309,4.33419
1206,Jambes,BE,Belgium,WAL,Wallonia,Europe/Brussels,+2,50.45636,4.87166
1207,Izegem,BE,Belgium,VLG,Flanders,Europe/Brussels,+2,50.91396,3.21378
1208,Ixelles,BE,Belgium,BRU,Brussels Capital,Europe/Brussels,+2,50.83333,4.36667
1209,Ieper,BE,Belgium,VLG,Flanders,Europe/Brussels,+2,50.85114,2.88569
1210,Huy,BE,Belgium,WAL,Wallonia,Europe/Brussels,+2,50.51894,5.23284
1211,Houthalen,BE,Belgium,VLG,Flanders,Europe/Brussels,+2,51.03427,5.37429
1212,Hoogstraten,BE,Belgium,VLG,Flanders,Europe/Brussels,+2,51.40029,4.76034
1213,Hoboken,BE,Belgium,VLG,Flanders,Europe/Brussels,+2,51.17611,4.34844
1214,Heverlee,BE,Belgium,VLG,Flanders,Europe/Brussels,+2,50.86426,4.69597
1215,Heusy,BE,Belgium,WAL,Wallonia,Europe/Brussels,+2,50.57457,5.86618
1216,Heusden,BE,Belgium,VLG,Flanders,Europe/Brussels,+2,51.03664,5.28013
1217,Herzele,BE,Belgium,VLG,Flanders,Europe/Brussels,+2,50.88681,3.89014
1218,Herve,BE,Belgium,WAL,Wallonia,Europe/Brussels,+2,50.64083,5.79353
1219,Herstal,BE,Belgium,WAL,Wallonia,Europe/Brussels,+2,50.66415,5.62346
1220,Herentals,BE,Belgium,VLG,Flanders,Europe/Brussels,+2,51.17655,4.83248
1221,Herent,BE,Belgium,VLG,Flanders,Europe/Brussels,+2,50.90861,4.67056
1222,Helchteren,BE,Belgium,VLG,Flanders,Europe/Brussels,+2,51.05591,5.38244
1223,Heist-op-den-Berg,BE,Belgium,VLG,Flanders,Europe/Brussels,+2,51.07537,4.72827
1224,Hasselt,BE,Belgium,VLG,Flanders,Europe/Brussels,+2,50.93106,5.33781
1225,Harelbeke,BE,Belgium,VLG,Flanders,Europe/Brussels,+2,50.85343,3.30935
1226,Hamme,BE,Belgium,VLG,Flanders,Europe/Brussels,+2,51.09822,4.13705
1227,Halle,BE,Belgium,VLG,Flanders,Europe/Brussels,+2,50.73385,4.23454
1228,Haaltert,BE,Belgium,VLG,Flanders,Europe/Brussels,+2,50.90634,4.00093
1229,Grivegnée,BE,Belgium,WAL,Wallonia,Europe/Brussels,+2,50.62148,5.61101
1230,Grimbergen,BE,Belgium,VLG,Flanders,Europe/Brussels,+2,50.93409,4.37213
1231,Gilly,BE,Belgium,WAL,Wallonia,Europe/Brussels,+2,50.42449,4.47890
1232,Geraardsbergen,BE,Belgium,VLG,Flanders,Europe/Brussels,+2,50.77343,3.88223
1233,Gentbrugge,BE,Belgium,VLG,Flanders,Europe/Brussels,+2,51.03692,3.76509
